{
"type": "FeatureCollection",
"features": [
{ "type": "Feature", "properties": { "station_name": "MEIJER STORES 233 ALLEN PARK1", "updated_at": "2021-04-02T00:24:04", "facility_type": null, "geocode_status": "GPS", "city": "Allen Park", "intersection_directions": null, "plus4": null, "street_address": "3565 Fairlane Dr", "zip": "48101", "cng_total_storage": null, "cng_vehicle_class": null, "ev_pricing": null, "SEMMCD": 1005, "NAME": "Allen Park", "COUNTY": 163 }, "geometry": { "type": "Point", "coordinates": [ -83.203911, 42.279785 ] } },
{ "type": "Feature", "properties": { "station_name": "AAA - Allen Park", "updated_at": "2021-03-11T23:22:17", "facility_type": "TRAVEL_CENTER", "geocode_status": "GPS", "city": "Allen Park", "intersection_directions": "Located in front of the AAA office entrance", "plus4": null, "street_address": "3177 Fairlane Dr", "zip": "48101", "cng_total_storage": null, "cng_vehicle_class": null, "ev_pricing": null, "SEMMCD": 1005, "NAME": "Allen Park", "COUNTY": 163 }, "geometry": { "type": "Point", "coordinates": [ -83.2046925, 42.2817833 ] } },
{ "type": "Feature", "properties": { "station_name": "MEIJER STORES 233 ALLEN PARK2", "updated_at": "2021-04-02T00:24:04", "facility_type": null, "geocode_status": "GPS", "city": "Allen Park", "intersection_directions": null, "plus4": null, "street_address": "3565 Fairlane Dr", "zip": "48101", "cng_total_storage": null, "cng_vehicle_class": null, "ev_pricing": null, "SEMMCD": 1005, "NAME": "Allen Park", "COUNTY": 163 }, "geometry": { "type": "Point", "coordinates": [ -83.203957, 42.279774 ] } },
{ "type": "Feature", "properties": { "station_name": "WESTLANDCOLONIA VILLAGE APTS", "updated_at": "2021-04-02T00:24:04", "facility_type": null, "geocode_status": "GPS", "city": "Westland", "intersection_directions": null, "plus4": null, "street_address": "8181 N Wayne Rd", "zip": "48185", "cng_total_storage": null, "cng_vehicle_class": null, "ev_pricing": null, "SEMMCD": 1210, "NAME": "Westland", "COUNTY": 163 }, "geometry": { "type": "Point", "coordinates": [ -83.386661, 42.347182 ] } },
{ "type": "Feature", "properties": { "station_name": "North Brothers Ford", "updated_at": "2021-03-11T23:22:17", "facility_type": "CAR_DEALER", "geocode_status": "200-9", "city": "Westland", "intersection_directions": null, "plus4": null, "street_address": "33300 Ford Rd", "zip": "48185", "cng_total_storage": null, "cng_vehicle_class": null, "ev_pricing": null, "SEMMCD": 1210, "NAME": "Westland", "COUNTY": 163 }, "geometry": { "type": "Point", "coordinates": [ -83.367414, 42.326409 ] } },
{ "type": "Feature", "properties": { "station_name": "Westland City Hall", "updated_at": "2021-03-15T13:14:11", "facility_type": "MUNI_GOV", "geocode_status": "GPS", "city": "Westland", "intersection_directions": null, "plus4": null, "street_address": "36300 Warren Rd", "zip": "48185", "cng_total_storage": null, "cng_vehicle_class": null, "ev_pricing": null, "SEMMCD": 1210, "NAME": "Westland", "COUNTY": 163 }, "geometry": { "type": "Point", "coordinates": [ -83.397987, 42.338919 ] } },
{ "type": "Feature", "properties": { "station_name": "SCHOOLCRAFT EDU LIBRARY 02", "updated_at": "2021-04-02T00:24:04", "facility_type": null, "geocode_status": "GPS", "city": "Livonia", "intersection_directions": null, "plus4": null, "street_address": "18600 Haggerty Rd", "zip": "48152", "cng_total_storage": null, "cng_vehicle_class": null, "ev_pricing": null, "SEMMCD": 1120, "NAME": "Livonia", "COUNTY": 163 }, "geometry": { "type": "Point", "coordinates": [ -83.431343, 42.419224 ] } },
{ "type": "Feature", "properties": { "station_name": "Meijer - Tesla Supercharger", "updated_at": "2021-03-11T23:22:17", "facility_type": null, "geocode_status": "200-8", "city": "Livonia", "intersection_directions": null, "plus4": null, "street_address": "13070 Middlebelt Rd", "zip": "48150", "cng_total_storage": null, "cng_vehicle_class": null, "ev_pricing": "$0.28 per kWh; $0.26 per minute above 60 kW and $0.13 per minute at or below 60 kW", "SEMMCD": 1120, "NAME": "Livonia", "COUNTY": 163 }, "geometry": { "type": "Point", "coordinates": [ -83.3295, 42.3794 ] } },
{ "type": "Feature", "properties": { "station_name": "CONSUMERSENERGY LVN CNG #2", "updated_at": "2021-04-02T00:24:04", "facility_type": null, "geocode_status": "GPS", "city": "Livonia", "intersection_directions": null, "plus4": null, "street_address": "11797 Farmington Rd", "zip": "48150", "cng_total_storage": null, "cng_vehicle_class": null, "ev_pricing": null, "SEMMCD": 1120, "NAME": "Livonia", "COUNTY": 163 }, "geometry": { "type": "Point", "coordinates": [ -83.372509, 42.369849 ] } },
{ "type": "Feature", "properties": { "station_name": "SCHOOLCRAFT EDU NORTH LOT 02", "updated_at": "2021-04-02T00:24:04", "facility_type": null, "geocode_status": "GPS", "city": "Livonia", "intersection_directions": null, "plus4": null, "street_address": "18600 Haggerty Rd", "zip": "48152", "cng_total_storage": null, "cng_vehicle_class": null, "ev_pricing": null, "SEMMCD": 1120, "NAME": "Livonia", "COUNTY": 163 }, "geometry": { "type": "Point", "coordinates": [ -83.432678, 42.42226 ] } },
{ "type": "Feature", "properties": { "station_name": "SCHOOLCRAFT EDU NORTH LOT 01", "updated_at": "2021-04-02T00:24:04", "facility_type": null, "geocode_status": "GPS", "city": "Livonia", "intersection_directions": null, "plus4": null, "street_address": "18600 Haggerty Rd", "zip": "48152", "cng_total_storage": null, "cng_vehicle_class": null, "ev_pricing": null, "SEMMCD": 1120, "NAME": "Livonia", "COUNTY": 163 }, "geometry": { "type": "Point", "coordinates": [ -83.432671, 42.42223 ] } },
{ "type": "Feature", "properties": { "station_name": "SCHOOLCRAFT EDU LIBRARY 01", "updated_at": "2021-04-02T00:24:04", "facility_type": null, "geocode_status": "GPS", "city": "Livonia", "intersection_directions": null, "plus4": null, "street_address": "18600 Haggerty Rd", "zip": "48152", "cng_total_storage": null, "cng_vehicle_class": null, "ev_pricing": null, "SEMMCD": 1120, "NAME": "Livonia", "COUNTY": 163 }, "geometry": { "type": "Point", "coordinates": [ -83.43132, 42.419235 ] } },
{ "type": "Feature", "properties": { "station_name": "CONSUMERSENERGY LVN CNG #1", "updated_at": "2021-04-02T00:24:04", "facility_type": null, "geocode_status": "GPS", "city": "Livonia", "intersection_directions": null, "plus4": null, "street_address": "11797 Farmington Rd", "zip": "48150", "cng_total_storage": null, "cng_vehicle_class": null, "ev_pricing": null, "SEMMCD": 1120, "NAME": "Livonia", "COUNTY": 163 }, "geometry": { "type": "Point", "coordinates": [ -83.372521, 42.369916 ] } },
{ "type": "Feature", "properties": { "station_name": "Feldman Chevrolet of Livonia", "updated_at": "2021-03-15T13:14:11", "facility_type": "CAR_DEALER", "geocode_status": "GPS", "city": "Livonia", "intersection_directions": null, "plus4": null, "street_address": "32570 Plymouth Rd", "zip": "48150", "cng_total_storage": null, "cng_vehicle_class": null, "ev_pricing": null, "SEMMCD": 1120, "NAME": "Livonia", "COUNTY": 163 }, "geometry": { "type": "Point", "coordinates": [ -83.364909, 42.36906 ] } },
{ "type": "Feature", "properties": { "station_name": "MONROE CCC STATION #2", "updated_at": "2021-04-02T00:24:04", "facility_type": null, "geocode_status": "GPS", "city": "Monroe", "intersection_directions": null, "plus4": null, "street_address": "1555 S Raisinville Rd", "zip": "48161", "cng_total_storage": null, "cng_vehicle_class": null, "ev_pricing": null, "SEMMCD": 5095, "NAME": "Monroe Twp", "COUNTY": 115 }, "geometry": { "type": "Point", "coordinates": [ -83.469955, 41.917465 ] } },
{ "type": "Feature", "properties": { "station_name": "Gerweck Nissan", "updated_at": "2021-03-11T23:22:17", "facility_type": "CAR_DEALER", "geocode_status": "GPS", "city": "Monroe", "intersection_directions": null, "plus4": null, "street_address": "15407 S Monroe St", "zip": "48161", "cng_total_storage": null, "cng_vehicle_class": null, "ev_pricing": null, "SEMMCD": 5095, "NAME": "Monroe Twp", "COUNTY": 115 }, "geometry": { "type": "Point", "coordinates": [ -83.412031, 41.900072 ] } },
{ "type": "Feature", "properties": { "station_name": "Gerweck Nissan", "updated_at": "2021-03-11T23:22:17", "facility_type": "CAR_DEALER", "geocode_status": "GPS", "city": "Monroe", "intersection_directions": null, "plus4": null, "street_address": "15407 S Monroe St", "zip": "48161", "cng_total_storage": null, "cng_vehicle_class": null, "ev_pricing": null, "SEMMCD": 5095, "NAME": "Monroe Twp", "COUNTY": 115 }, "geometry": { "type": "Point", "coordinates": [ -83.412031, 41.900072 ] } },
{ "type": "Feature", "properties": { "station_name": "DETROIT JATC CHARGE STATION", "updated_at": "2021-04-02T00:24:04", "facility_type": null, "geocode_status": "GPS", "city": "Warren", "intersection_directions": null, "plus4": null, "street_address": "2277 E 11 Mile Rd", "zip": "48092", "cng_total_storage": null, "cng_vehicle_class": null, "ev_pricing": null, "SEMMCD": 3130, "NAME": "Warren", "COUNTY": 99 }, "geometry": { "type": "Point", "coordinates": [ -83.079697, 42.491943 ] } },
{ "type": "Feature", "properties": { "station_name": "Hamilton Chevrolet", "updated_at": "2021-03-11T23:22:17", "facility_type": "CAR_DEALER", "geocode_status": "GPS", "city": "Warren", "intersection_directions": null, "plus4": null, "street_address": "5800 14 Mile Rd", "zip": "48092", "cng_total_storage": null, "cng_vehicle_class": null, "ev_pricing": null, "SEMMCD": 3130, "NAME": "Warren", "COUNTY": 99 }, "geometry": { "type": "Point", "coordinates": [ -83.0492083, 42.5352135 ] } },
{ "type": "Feature", "properties": { "station_name": "Wayne State University - Advanced Technology Center", "updated_at": "2021-03-11T23:22:17", "facility_type": "COLLEGE_CAMPUS", "geocode_status": "GPS", "city": "Warren", "intersection_directions": null, "plus4": null, "street_address": "14601 E Twelve Mile Rd", "zip": "48088", "cng_total_storage": null, "cng_vehicle_class": null, "ev_pricing": "Free", "SEMMCD": 3130, "NAME": "Warren", "COUNTY": 99 }, "geometry": { "type": "Point", "coordinates": [ -82.97426, 42.509012 ] } },
{ "type": "Feature", "properties": { "station_name": "MEIJER STORES 237 WARREN 2", "updated_at": "2021-04-02T00:24:04", "facility_type": null, "geocode_status": "GPS", "city": "Warren", "intersection_directions": null, "plus4": null, "street_address": "29367 Mound Rd", "zip": "48092", "cng_total_storage": null, "cng_vehicle_class": null, "ev_pricing": null, "SEMMCD": 3130, "NAME": "Warren", "COUNTY": 99 }, "geometry": { "type": "Point", "coordinates": [ -83.048751, 42.508981 ] } },
{ "type": "Feature", "properties": { "station_name": "MEIJER STORES 306 WARREN 1", "updated_at": "2021-04-02T00:24:04", "facility_type": null, "geocode_status": "GPS", "city": "Warren", "intersection_directions": null, "plus4": null, "street_address": "25225 Schoenherr Rd", "zip": "48089", "cng_total_storage": null, "cng_vehicle_class": null, "ev_pricing": null, "SEMMCD": 3130, "NAME": "Warren", "COUNTY": 99 }, "geometry": { "type": "Point", "coordinates": [ -82.989293, 42.480193 ] } },
{ "type": "Feature", "properties": { "station_name": "MEIJER STORES 306 WARREN 2", "updated_at": "2021-04-02T00:24:04", "facility_type": null, "geocode_status": "GPS", "city": "Warren", "intersection_directions": null, "plus4": null, "street_address": "13355 E 10 Mile Rd", "zip": "48089", "cng_total_storage": null, "cng_vehicle_class": null, "ev_pricing": null, "SEMMCD": 3130, "NAME": "Warren", "COUNTY": 99 }, "geometry": { "type": "Point", "coordinates": [ -82.989701, 42.479841 ] } },
{ "type": "Feature", "properties": { "station_name": "775 STATION 1", "updated_at": "2021-04-02T00:24:04", "facility_type": null, "geocode_status": "GPS", "city": "Warren", "intersection_directions": null, "plus4": null, "street_address": "31200 Schoenherr Rd", "zip": "48088", "cng_total_storage": null, "cng_vehicle_class": null, "ev_pricing": null, "SEMMCD": 3130, "NAME": "Warren", "COUNTY": 99 }, "geometry": { "type": "Point", "coordinates": [ -82.986259, 42.522916 ] } },
{ "type": "Feature", "properties": { "station_name": "MEIJER STORES 237 WARREN 3", "updated_at": "2021-04-02T00:24:04", "facility_type": null, "geocode_status": "GPS", "city": "Warren", "intersection_directions": null, "plus4": null, "street_address": "29505 Mound Rd", "zip": "48092", "cng_total_storage": null, "cng_vehicle_class": null, "ev_pricing": null, "SEMMCD": 3130, "NAME": "Warren", "COUNTY": 99 }, "geometry": { "type": "Point", "coordinates": [ -83.048861, 42.509027 ] } },
{ "type": "Feature", "properties": { "station_name": "Walmart #4424", "updated_at": "2021-04-01T22:55:13", "facility_type": null, "geocode_status": "GPS", "city": "Warren", "intersection_directions": null, "plus4": null, "street_address": "29176 Van Dyke Ave", "zip": "48093", "cng_total_storage": null, "cng_vehicle_class": null, "ev_pricing": "Level 2: $0.03 per 30 seconds", "SEMMCD": 3130, "NAME": "Warren", "COUNTY": 99 }, "geometry": { "type": "Point", "coordinates": [ -83.026697, 42.507976 ] } },
{ "type": "Feature", "properties": { "station_name": "City of Auburn Hills - Log Cabin Streetside Parking", "updated_at": "2021-03-11T23:22:17", "facility_type": "STREET_PARKING", "geocode_status": "GPS", "city": "Auburn Hills", "intersection_directions": "Just west of\/at intersection of Auburn Road  and N Squirrel Road; single unit in front of log cabin along Auburn Road southern roadside.", "plus4": null, "street_address": "3388 Auburn Rd", "zip": "48326", "cng_total_storage": null, "cng_vehicle_class": null, "ev_pricing": "Free", "SEMMCD": 2220, "NAME": "Auburn Hills", "COUNTY": 125 }, "geometry": { "type": "Point", "coordinates": [ -83.220931, 42.6336 ] } },
{ "type": "Feature", "properties": { "station_name": "City of Auburn Hills - Administrative Campus", "updated_at": "2021-03-11T23:22:17", "facility_type": "MUNI_GOV", "geocode_status": "200-9", "city": "Auburn Hills", "intersection_directions": "University Drive and Squirrel Road", "plus4": null, "street_address": "1827 N Squirrel Rd", "zip": "48326", "cng_total_storage": null, "cng_vehicle_class": null, "ev_pricing": "Free", "SEMMCD": 2220, "NAME": "Auburn Hills", "COUNTY": 125 }, "geometry": { "type": "Point", "coordinates": [ -83.220974, 42.670667 ] } },
{ "type": "Feature", "properties": { "station_name": "AUBURN HILLS GARAGE EV 02", "updated_at": "2021-04-02T00:24:04", "facility_type": null, "geocode_status": "GPS", "city": "Auburn Hills", "intersection_directions": null, "plus4": null, "street_address": "3380 Auburn Rd", "zip": "48326", "cng_total_storage": null, "cng_vehicle_class": null, "ev_pricing": null, "SEMMCD": 2220, "NAME": "Auburn Hills", "COUNTY": 125 }, "geometry": { "type": "Point", "coordinates": [ -83.221102, 42.633362 ] } },
{ "type": "Feature", "properties": { "station_name": "AUBURN HILLS COMMUNITYCENTER", "updated_at": "2021-04-02T00:24:04", "facility_type": null, "geocode_status": "GPS", "city": "Auburn Hills", "intersection_directions": null, "plus4": null, "street_address": "1827 N Squirrel Rd", "zip": "48326", "cng_total_storage": null, "cng_vehicle_class": null, "ev_pricing": null, "SEMMCD": 2220, "NAME": "Auburn Hills", "COUNTY": 125 }, "geometry": { "type": "Point", "coordinates": [ -83.221635, 42.670548 ] } },
{ "type": "Feature", "properties": { "station_name": "AUBURN HILLS AUBURN RD 01", "updated_at": "2021-04-02T00:24:04", "facility_type": null, "geocode_status": "GPS", "city": "Auburn Hills", "intersection_directions": null, "plus4": null, "street_address": "3386 Auburn Rd", "zip": "48326", "cng_total_storage": null, "cng_vehicle_class": null, "ev_pricing": null, "SEMMCD": 2220, "NAME": "Auburn Hills", "COUNTY": 125 }, "geometry": { "type": "Point", "coordinates": [ -83.220772, 42.633372 ] } },
{ "type": "Feature", "properties": { "station_name": "Meijer - Tesla Supercharger", "updated_at": "2021-03-11T23:22:17", "facility_type": null, "geocode_status": "200-9", "city": "Auburn Hills", "intersection_directions": null, "plus4": null, "street_address": "800 Brown Road", "zip": "48326", "cng_total_storage": null, "cng_vehicle_class": null, "ev_pricing": "$0.28 per kWh; $0.26 per minute above 60 kW and $0.13 per minute at or below 60 kW", "SEMMCD": 2220, "NAME": "Auburn Hills", "COUNTY": 125 }, "geometry": { "type": "Point", "coordinates": [ -83.2894, 42.7069 ] } },
{ "type": "Feature", "properties": { "station_name": "AUBURN HILLS DEN PARKING LOT", "updated_at": "2021-04-02T00:24:04", "facility_type": null, "geocode_status": "GPS", "city": "Auburn Hills", "intersection_directions": null, "plus4": null, "street_address": "3388 Auburn Rd", "zip": "48326", "cng_total_storage": null, "cng_vehicle_class": null, "ev_pricing": null, "SEMMCD": 2220, "NAME": "Auburn Hills", "COUNTY": 125 }, "geometry": { "type": "Point", "coordinates": [ -83.220704, 42.63346 ] } },
{ "type": "Feature", "properties": { "station_name": "TOPGOLFAH TOP GOLF", "updated_at": "2021-04-02T00:24:04", "facility_type": null, "geocode_status": "GPS", "city": "Auburn Hills", "intersection_directions": null, "plus4": null, "street_address": "500 Great Lakes Crossing Dr", "zip": "48326", "cng_total_storage": null, "cng_vehicle_class": null, "ev_pricing": null, "SEMMCD": 2220, "NAME": "Auburn Hills", "COUNTY": 125 }, "geometry": { "type": "Point", "coordinates": [ -83.28855, 42.700585 ] } },
{ "type": "Feature", "properties": { "station_name": "Meijer - Jule Energy", "updated_at": "2021-03-11T23:22:17", "facility_type": "GROCERY", "geocode_status": "GPS", "city": "Auburn Hills", "intersection_directions": null, "plus4": null, "street_address": "850 Brown Rd", "zip": "48326", "cng_total_storage": null, "cng_vehicle_class": null, "ev_pricing": null, "SEMMCD": 2220, "NAME": "Auburn Hills", "COUNTY": 125 }, "geometry": { "type": "Point", "coordinates": [ -83.288994, 42.707012 ] } },
{ "type": "Feature", "properties": { "station_name": "AUBURN HILLS GARAGE EV 01", "updated_at": "2021-04-02T00:24:04", "facility_type": null, "geocode_status": "GPS", "city": "Auburn Hills", "intersection_directions": null, "plus4": null, "street_address": "3380 Auburn Rd", "zip": "48326", "cng_total_storage": null, "cng_vehicle_class": null, "ev_pricing": null, "SEMMCD": 2220, "NAME": "Auburn Hills", "COUNTY": 125 }, "geometry": { "type": "Point", "coordinates": [ -83.221143, 42.633402 ] } },
{ "type": "Feature", "properties": { "station_name": "AUBURN HILLS CAMPUS P3", "updated_at": "2021-04-02T00:24:04", "facility_type": null, "geocode_status": "GPS", "city": "Auburn Hills", "intersection_directions": null, "plus4": null, "street_address": "1827 N Squirrel Rd", "zip": "48326", "cng_total_storage": null, "cng_vehicle_class": null, "ev_pricing": null, "SEMMCD": 2220, "NAME": "Auburn Hills", "COUNTY": 125 }, "geometry": { "type": "Point", "coordinates": [ -83.221202, 42.67089 ] } },
{ "type": "Feature", "properties": { "station_name": "AUBURN HILLS CAMPUS P2", "updated_at": "2021-04-02T00:24:04", "facility_type": null, "geocode_status": "GPS", "city": "Auburn Hills", "intersection_directions": null, "plus4": null, "street_address": "1827 N Squirrel Rd", "zip": "48326", "cng_total_storage": null, "cng_vehicle_class": null, "ev_pricing": null, "SEMMCD": 2220, "NAME": "Auburn Hills", "COUNTY": 125 }, "geometry": { "type": "Point", "coordinates": [ -83.220667, 42.670713 ] } },
{ "type": "Feature", "properties": { "station_name": "DTE Energy - Caniff Service Center", "updated_at": "2021-03-11T23:22:17", "facility_type": "UTILITY", "geocode_status": "GPS", "city": "Detroit", "intersection_directions": "Northwest corner of the intersection of Caniff Street and Russell Street; two units at far right front\/southeast corner of main building by large blue containers.", "plus4": null, "street_address": "1201 Caniff St", "zip": "48211", "cng_total_storage": null, "cng_vehicle_class": null, "ev_pricing": null, "SEMMCD": 5, "NAME": "Detroit", "COUNTY": 163 }, "geometry": { "type": "Point", "coordinates": [ -83.074263, 42.395383 ] } },
{ "type": "Feature", "properties": { "station_name": "DTE Energy Headquarters - Executive Garage", "updated_at": "2021-03-11T23:22:17", "facility_type": "UTILITY", "geocode_status": "GPS", "city": "Detroit", "intersection_directions": "Six southern-most parking spaces along western wall of garage between W Elizabeth Street and Beech Street, between 1st Street and 2nd Avenue, entrance onto W Elizabeth Street off of Grand River Avenue; just northwest of intersection of Grand River Avenue and 1st Street.", "plus4": null, "street_address": "1 Energy Plaza", "zip": "48226", "cng_total_storage": null, "cng_vehicle_class": null, "ev_pricing": null, "SEMMCD": 5, "NAME": "Detroit", "COUNTY": 163 }, "geometry": { "type": "Point", "coordinates": [ -83.056903, 42.334321 ] } },
{ "type": "Feature", "properties": { "station_name": "DTE Energy - Headquarters Visitor Lot", "updated_at": "2021-03-11T23:22:17", "facility_type": "UTILITY", "geocode_status": "GPS", "city": "Detroit", "intersection_directions": "Dual unit in southwest corner of visitor parking lot to the east of the building complex under solar car port, off 1st Street between Bagley Street and Grand River Avenue.", "plus4": null, "street_address": "1 Energy Plaza", "zip": "48226", "cng_total_storage": null, "cng_vehicle_class": null, "ev_pricing": "Free", "SEMMCD": 5, "NAME": "Detroit", "COUNTY": 163 }, "geometry": { "type": "Point", "coordinates": [ -83.05662, 42.3337517 ] } },
{ "type": "Feature", "properties": { "station_name": "DTE Energy - Warren Service Center", "updated_at": "2021-03-11T23:22:17", "facility_type": "UTILITY", "geocode_status": "GPS", "city": "Detroit", "intersection_directions": "East of intersection of Livernois Avenue and W Warren Avenue; two units in northern-most parking spaces on eastern edge of parking lot off of W Warren Avenue, along western-facing building, next to electrical box.", "plus4": null, "street_address": "7940 Livernois Ave", "zip": "48204", "cng_total_storage": null, "cng_vehicle_class": null, "ev_pricing": null, "SEMMCD": 5, "NAME": "Detroit", "COUNTY": 163 }, "geometry": { "type": "Point", "coordinates": [ -83.128128, 42.344978 ] } },
{ "type": "Feature", "properties": { "station_name": "MGM Casino - Public Parking Structure", "updated_at": "2021-03-11T23:22:17", "facility_type": "OTHER_ENTERTAINMENT", "geocode_status": "GPS", "city": "Detroit", "intersection_directions": "Southwest of intersection of 3rd Street and Fisher Highway; spaces in center of the 6th floor of public parking structure, immediately east and west of the center electrical\/facilities room.", "plus4": null, "street_address": "1777 3rd St", "zip": "48226", "cng_total_storage": null, "cng_vehicle_class": null, "ev_pricing": "Free", "SEMMCD": 5, "NAME": "Detroit", "COUNTY": 163 }, "geometry": { "type": "Point", "coordinates": [ -83.0608, 42.33476 ] } },
{ "type": "Feature", "properties": { "station_name": "DTE Energy - Headquarters Cato Substation", "updated_at": "2021-03-11T23:22:17", "facility_type": "UTILITY", "geocode_status": "GPS", "city": "Detroit", "intersection_directions": "Northwest of intersection of 1st Street and Grand River Avenue; two units in northernmost spaces on eastern face of building.", "plus4": null, "street_address": "1 Energy Plaza", "zip": "48226", "cng_total_storage": null, "cng_vehicle_class": null, "ev_pricing": null, "SEMMCD": 5, "NAME": "Detroit", "COUNTY": 163 }, "geometry": { "type": "Point", "coordinates": [ -83.057424, 42.335279 ] } },
{ "type": "Feature", "properties": { "station_name": "DTE Energy - Headquarters Directors Lot", "updated_at": "2021-03-11T23:22:17", "facility_type": "UTILITY", "geocode_status": "GPS", "city": "Detroit", "intersection_directions": "West of intersection of 1st Street and Grand River Avenue; three dual units in southernmost parking spaces along eastern edge of parking lot.", "plus4": null, "street_address": "1 Energy Plaza", "zip": "48226", "cng_total_storage": null, "cng_vehicle_class": null, "ev_pricing": null, "SEMMCD": 5, "NAME": "Detroit", "COUNTY": 163 }, "geometry": { "type": "Point", "coordinates": [ -83.056126, 42.334668 ] } },
{ "type": "Feature", "properties": { "station_name": "DTE Energy - Headquarters Employee Lot", "updated_at": "2021-03-11T23:22:17", "facility_type": "UTILITY", "geocode_status": "GPS", "city": "Detroit", "intersection_directions": "Three dual units long north edge of Employee\/Company parking lot to the east of the building complex, off 1st Street between Bagley Street and Grand River Avenue.", "plus4": null, "street_address": "1 Energy Plaza", "zip": "48226", "cng_total_storage": null, "cng_vehicle_class": null, "ev_pricing": null, "SEMMCD": 5, "NAME": "Detroit", "COUNTY": 163 }, "geometry": { "type": "Point", "coordinates": [ -83.0566, 42.334232 ] } },
{ "type": "Feature", "properties": { "station_name": "University of Detroit Mercy", "updated_at": "2021-03-11T23:22:17", "facility_type": "COLLEGE_CAMPUS", "geocode_status": "GPS", "city": "Detroit", "intersection_directions": "Regular parking spaces (fifth through eighth) north of handicapped parking spaces along western face of Calihan Hall by building's western emergency exit.", "plus4": null, "street_address": "4001 W McNichols Rd", "zip": "48221", "cng_total_storage": null, "cng_vehicle_class": null, "ev_pricing": "Free", "SEMMCD": 5, "NAME": "Detroit", "COUNTY": 163 }, "geometry": { "type": "Point", "coordinates": [ -83.1364, 42.41423 ] } },
{ "type": "Feature", "properties": { "station_name": "DTE Energy - Headquarters Mail Room Loading Dock Garage", "updated_at": "2021-03-11T23:22:17", "facility_type": "UTILITY", "geocode_status": "GPS", "city": "Detroit", "intersection_directions": "Two northernmost parking spaces in garage.", "plus4": null, "street_address": "1 Energy Plaza", "zip": "48226", "cng_total_storage": null, "cng_vehicle_class": null, "ev_pricing": null, "SEMMCD": 5, "NAME": "Detroit", "COUNTY": 163 }, "geometry": { "type": "Point", "coordinates": [ -83.057153, 42.33466 ] } },
{ "type": "Feature", "properties": { "station_name": "Ideal Group", "updated_at": "2021-03-11T23:22:17", "facility_type": "OFFICE_BLDG", "geocode_status": "200-9", "city": "Detroit", "intersection_directions": null, "plus4": null, "street_address": "2525 Clark St", "zip": "48209", "cng_total_storage": null, "cng_vehicle_class": null, "ev_pricing": null, "SEMMCD": 5, "NAME": "Detroit", "COUNTY": 163 }, "geometry": { "type": "Point", "coordinates": [ -83.100004, 42.325286 ] } },
{ "type": "Feature", "properties": { "station_name": "DTE Energy - Edison Boat Club", "updated_at": "2021-03-11T23:22:17", "facility_type": "OTHER_ENTERTAINMENT", "geocode_status": "200-8", "city": "Detroit", "intersection_directions": "Located on southern face of small out building to the west of the main building, facing the water.", "plus4": null, "street_address": "100 Lycaste St", "zip": "48214", "cng_total_storage": null, "cng_vehicle_class": null, "ev_pricing": null, "SEMMCD": 5, "NAME": "Detroit", "COUNTY": 163 }, "geometry": { "type": "Point", "coordinates": [ -82.961499, 42.358549 ] } },
{ "type": "Feature", "properties": { "station_name": "Wayne State University - Parking Structure #1", "updated_at": "2021-03-11T23:22:17", "facility_type": "COLLEGE_CAMPUS", "geocode_status": "GPS", "city": "Detroit", "intersection_directions": null, "plus4": null, "street_address": "450 W Palmer", "zip": "48202", "cng_total_storage": null, "cng_vehicle_class": null, "ev_pricing": "Free", "SEMMCD": 5, "NAME": "Detroit", "COUNTY": 163 }, "geometry": { "type": "Point", "coordinates": [ -83.0711717, 42.3612218 ] } },
{ "type": "Feature", "properties": { "station_name": "Wayne State University - Parking Structure #2", "updated_at": "2021-03-11T23:22:17", "facility_type": "COLLEGE_CAMPUS", "geocode_status": "GPS", "city": "Detroit", "intersection_directions": null, "plus4": null, "street_address": "5150 Lodge Service Dr", "zip": "48202", "cng_total_storage": null, "cng_vehicle_class": null, "ev_pricing": "Free", "SEMMCD": 5, "NAME": "Detroit", "COUNTY": 163 }, "geometry": { "type": "Point", "coordinates": [ -83.0733826, 42.356584 ] } },
{ "type": "Feature", "properties": { "station_name": "Wayne State University - Parking Structure #3", "updated_at": "2021-03-11T23:22:17", "facility_type": "COLLEGE_CAMPUS", "geocode_status": "GPS", "city": "Detroit", "intersection_directions": null, "plus4": null, "street_address": "45 E Warren", "zip": "48202", "cng_total_storage": null, "cng_vehicle_class": null, "ev_pricing": "Free", "SEMMCD": 5, "NAME": "Detroit", "COUNTY": 163 }, "geometry": { "type": "Point", "coordinates": [ -83.0633437, 42.3573546 ] } },
{ "type": "Feature", "properties": { "station_name": "Wayne State University - Parking Structure #4", "updated_at": "2021-03-11T23:22:17", "facility_type": "COLLEGE_CAMPUS", "geocode_status": "GPS", "city": "Detroit", "intersection_directions": null, "plus4": null, "street_address": "555 E Canfield", "zip": "48202", "cng_total_storage": null, "cng_vehicle_class": null, "ev_pricing": "Free", "SEMMCD": 5, "NAME": "Detroit", "COUNTY": 163 }, "geometry": { "type": "Point", "coordinates": [ -83.055206, 42.3559279 ] } },
{ "type": "Feature", "properties": { "station_name": "Wayne State University - Parking Structure #5", "updated_at": "2021-03-11T23:22:17", "facility_type": "COLLEGE_CAMPUS", "geocode_status": "GPS", "city": "Detroit", "intersection_directions": null, "plus4": null, "street_address": "5501 Anthony Wayne Dr", "zip": "48202", "cng_total_storage": null, "cng_vehicle_class": null, "ev_pricing": "Free", "SEMMCD": 5, "NAME": "Detroit", "COUNTY": 163 }, "geometry": { "type": "Point", "coordinates": [ -83.0738476, 42.3577454 ] } },
{ "type": "Feature", "properties": { "station_name": "Wayne State University - Parking Structure #6", "updated_at": "2021-03-11T23:22:17", "facility_type": "COLLEGE_CAMPUS", "geocode_status": "GPS", "city": "Detroit", "intersection_directions": null, "plus4": null, "street_address": "61 Putnam", "zip": "48202", "cng_total_storage": null, "cng_vehicle_class": null, "ev_pricing": "Free", "SEMMCD": 5, "NAME": "Detroit", "COUNTY": 163 }, "geometry": { "type": "Point", "coordinates": [ -83.0660457, 42.3574318 ] } },
{ "type": "Feature", "properties": { "station_name": "Wayne State University - Parking Structure #7", "updated_at": "2021-03-11T23:22:17", "facility_type": "COLLEGE_CAMPUS", "geocode_status": "GPS", "city": "Detroit", "intersection_directions": null, "plus4": null, "street_address": "3717 John R", "zip": "48202", "cng_total_storage": null, "cng_vehicle_class": null, "ev_pricing": "Free", "SEMMCD": 5, "NAME": "Detroit", "COUNTY": 163 }, "geometry": { "type": "Point", "coordinates": [ -83.0565744, 42.349218 ] } },
{ "type": "Feature", "properties": { "station_name": "Wayne State University - Parking Structure #8", "updated_at": "2021-03-11T23:22:17", "facility_type": "COLLEGE_CAMPUS", "geocode_status": "GPS", "city": "Detroit", "intersection_directions": null, "plus4": null, "street_address": "91 W Forest", "zip": "48202", "cng_total_storage": null, "cng_vehicle_class": null, "ev_pricing": "Free", "SEMMCD": 5, "NAME": "Detroit", "COUNTY": 163 }, "geometry": { "type": "Point", "coordinates": [ -83.0641661, 42.3542635 ] } },
{ "type": "Feature", "properties": { "station_name": "Wayne State University - Lot #50", "updated_at": "2021-03-11T23:22:17", "facility_type": "COLLEGE_CAMPUS", "geocode_status": "GPS", "city": "Detroit", "intersection_directions": null, "plus4": null, "street_address": "1200 W Warren", "zip": "48202", "cng_total_storage": null, "cng_vehicle_class": null, "ev_pricing": "Free", "SEMMCD": 5, "NAME": "Detroit", "COUNTY": 163 }, "geometry": { "type": "Point", "coordinates": [ -83.0752607, 42.3535883 ] } },
{ "type": "Feature", "properties": { "station_name": "Wayne State University - Lot #75", "updated_at": "2021-03-11T23:22:17", "facility_type": "COLLEGE_CAMPUS", "geocode_status": "GPS", "city": "Detroit", "intersection_directions": null, "plus4": null, "street_address": "545 E Canfield", "zip": "48202", "cng_total_storage": null, "cng_vehicle_class": null, "ev_pricing": "Free", "SEMMCD": 5, "NAME": "Detroit", "COUNTY": 163 }, "geometry": { "type": "Point", "coordinates": [ -83.0555883, 42.3552738 ] } },
{ "type": "Feature", "properties": { "station_name": "CENTER GARAGE REN CENTER 1", "updated_at": "2021-04-02T00:24:04", "facility_type": null, "geocode_status": "GPS", "city": "Detroit", "intersection_directions": null, "plus4": null, "street_address": "414 Renaissance Dr W", "zip": "48207", "cng_total_storage": null, "cng_vehicle_class": null, "ev_pricing": null, "SEMMCD": 5, "NAME": "Detroit", "COUNTY": 163 }, "geometry": { "type": "Point", "coordinates": [ -83.040591, 42.32829 ] } },
{ "type": "Feature", "properties": { "station_name": "CENTER GARAGE REN CENTER 2", "updated_at": "2021-04-02T00:24:04", "facility_type": null, "geocode_status": "GPS", "city": "Detroit", "intersection_directions": null, "plus4": null, "street_address": "45 Renaissance Dr W", "zip": "48207", "cng_total_storage": null, "cng_vehicle_class": null, "ev_pricing": null, "SEMMCD": 5, "NAME": "Detroit", "COUNTY": 163 }, "geometry": { "type": "Point", "coordinates": [ -83.040586, 42.32828 ] } },
{ "type": "Feature", "properties": { "station_name": "Renaissance Center", "updated_at": "2021-03-11T23:22:17", "facility_type": "OFFICE_BLDG", "geocode_status": "GPS", "city": "Detroit", "intersection_directions": null, "plus4": null, "street_address": "400 Renaissance Center", "zip": "48243", "cng_total_storage": null, "cng_vehicle_class": null, "ev_pricing": null, "SEMMCD": 5, "NAME": "Detroit", "COUNTY": 163 }, "geometry": { "type": "Point", "coordinates": [ -83.0383158, 42.3301394 ] } },
{ "type": "Feature", "properties": { "station_name": "BEDROCK NEW CENTER 2", "updated_at": "2021-04-02T00:24:04", "facility_type": null, "geocode_status": "GPS", "city": "Detroit", "intersection_directions": null, "plus4": null, "street_address": "116 Lothrop Rd", "zip": "48202", "cng_total_storage": null, "cng_vehicle_class": null, "ev_pricing": null, "SEMMCD": 5, "NAME": "Detroit", "COUNTY": 163 }, "geometry": { "type": "Point", "coordinates": [ -83.076173, 42.371047 ] } },
{ "type": "Feature", "properties": { "station_name": "1FORDPLACE 1FP STATION 1", "updated_at": "2021-04-02T00:24:04", "facility_type": null, "geocode_status": "GPS", "city": "Detroit", "intersection_directions": null, "plus4": null, "street_address": "1 Ford Pl", "zip": "48202", "cng_total_storage": null, "cng_vehicle_class": null, "ev_pricing": null, "SEMMCD": 5, "NAME": "Detroit", "COUNTY": 163 }, "geometry": { "type": "Point", "coordinates": [ -83.074466, 42.364505 ] } },
{ "type": "Feature", "properties": { "station_name": "BEDROCK ONE DET GARAGE1", "updated_at": "2021-04-02T00:24:04", "facility_type": null, "geocode_status": "GPS", "city": "Detroit", "intersection_directions": null, "plus4": null, "street_address": "100 E Congress St", "zip": "48226", "cng_total_storage": null, "cng_vehicle_class": null, "ev_pricing": null, "SEMMCD": 5, "NAME": "Detroit", "COUNTY": 163 }, "geometry": { "type": "Point", "coordinates": [ -83.044429, 42.330459 ] } },
{ "type": "Feature", "properties": { "station_name": "BEDROCK GREEKTOWN 2", "updated_at": "2021-04-02T00:24:04", "facility_type": null, "geocode_status": "GPS", "city": "Detroit", "intersection_directions": null, "plus4": null, "street_address": "1094 Randolph", "zip": "48226", "cng_total_storage": null, "cng_vehicle_class": null, "ev_pricing": null, "SEMMCD": 5, "NAME": "Detroit", "COUNTY": 163 }, "geometry": { "type": "Point", "coordinates": [ -83.043548, 42.333694 ] } },
{ "type": "Feature", "properties": { "station_name": "BEDROCK Z DECK GRIVER2", "updated_at": "2021-04-02T00:24:04", "facility_type": null, "geocode_status": "GPS", "city": "Detroit", "intersection_directions": null, "plus4": null, "street_address": "159 Gratiot Ave", "zip": "48226", "cng_total_storage": null, "cng_vehicle_class": null, "ev_pricing": null, "SEMMCD": 5, "NAME": "Detroit", "COUNTY": 163 }, "geometry": { "type": "Point", "coordinates": [ -83.047255, 42.334881 ] } },
{ "type": "Feature", "properties": { "station_name": "BEDROCK BRICKTOWNGARAGE", "updated_at": "2021-04-02T00:24:04", "facility_type": null, "geocode_status": "GPS", "city": "Detroit", "intersection_directions": null, "plus4": null, "street_address": "711 Beaubien St", "zip": "48226", "cng_total_storage": null, "cng_vehicle_class": null, "ev_pricing": null, "SEMMCD": 5, "NAME": "Detroit", "COUNTY": 163 }, "geometry": { "type": "Point", "coordinates": [ -83.041969, 42.333239 ] } },
{ "type": "Feature", "properties": { "station_name": "BEDROCK Z DECK GRATIOT1", "updated_at": "2021-04-02T00:24:04", "facility_type": null, "geocode_status": "GPS", "city": "Detroit", "intersection_directions": null, "plus4": null, "street_address": "220 Gratiot Ave", "zip": "48226", "cng_total_storage": null, "cng_vehicle_class": null, "ev_pricing": null, "SEMMCD": 5, "NAME": "Detroit", "COUNTY": 163 }, "geometry": { "type": "Point", "coordinates": [ -83.046188, 42.334284 ] } },
{ "type": "Feature", "properties": { "station_name": "BEDROCK FIRST NATIONAL", "updated_at": "2021-04-02T00:24:04", "facility_type": null, "geocode_status": "GPS", "city": "Detroit", "intersection_directions": null, "plus4": null, "street_address": "629 Bates St", "zip": "48226", "cng_total_storage": null, "cng_vehicle_class": null, "ev_pricing": null, "SEMMCD": 5, "NAME": "Detroit", "COUNTY": 163 }, "geometry": { "type": "Point", "coordinates": [ -83.044749, 42.330768 ] } },
{ "type": "Feature", "properties": { "station_name": "BEDROCK KAHN GARAGE 2", "updated_at": "2021-04-02T00:24:04", "facility_type": null, "geocode_status": "GPS", "city": "Detroit", "intersection_directions": null, "plus4": null, "street_address": "964 3rd Ave", "zip": "48226", "cng_total_storage": null, "cng_vehicle_class": null, "ev_pricing": null, "SEMMCD": 5, "NAME": "Detroit", "COUNTY": 163 }, "geometry": { "type": "Point", "coordinates": [ -83.055087, 42.328078 ] } },
{ "type": "Feature", "properties": { "station_name": "BEDROCK CASS GARAGE 2", "updated_at": "2021-04-02T00:24:04", "facility_type": null, "geocode_status": "GPS", "city": "Detroit", "intersection_directions": null, "plus4": null, "street_address": "6522 Cass Ave", "zip": "48202", "cng_total_storage": null, "cng_vehicle_class": null, "ev_pricing": null, "SEMMCD": 5, "NAME": "Detroit", "COUNTY": 163 }, "geometry": { "type": "Point", "coordinates": [ -83.074143, 42.369064 ] } },
{ "type": "Feature", "properties": { "station_name": "BEDROCK 2 DETROIT GARAG", "updated_at": "2021-04-02T00:24:04", "facility_type": null, "geocode_status": "GPS", "city": "Detroit", "intersection_directions": null, "plus4": null, "street_address": "269 E Congress St", "zip": "48226", "cng_total_storage": null, "cng_vehicle_class": null, "ev_pricing": null, "SEMMCD": 5, "NAME": "Detroit", "COUNTY": 163 }, "geometry": { "type": "Point", "coordinates": [ -83.043102, 42.330479 ] } },
{ "type": "Feature", "properties": { "station_name": "BEDROCK FINANCIALDISTR1", "updated_at": "2021-04-02T00:24:04", "facility_type": null, "geocode_status": "GPS", "city": "Detroit", "intersection_directions": null, "plus4": null, "street_address": "730 Shelby St", "zip": "48226", "cng_total_storage": null, "cng_vehicle_class": null, "ev_pricing": null, "SEMMCD": 5, "NAME": "Detroit", "COUNTY": 163 }, "geometry": { "type": "Point", "coordinates": [ -83.048489, 42.330933 ] } },
{ "type": "Feature", "properties": { "station_name": "DET INST OF ART EV STATION 01", "updated_at": "2021-04-02T00:24:04", "facility_type": null, "geocode_status": "GPS", "city": "Detroit", "intersection_directions": null, "plus4": null, "street_address": "180 E Kirby St", "zip": "48202", "cng_total_storage": null, "cng_vehicle_class": null, "ev_pricing": null, "SEMMCD": 5, "NAME": "Detroit", "COUNTY": 163 }, "geometry": { "type": "Point", "coordinates": [ -83.064826, 42.360211 ] } },
{ "type": "Feature", "properties": { "station_name": "BEDROCK NEW STATION 1", "updated_at": "2021-04-02T00:24:04", "facility_type": null, "geocode_status": "GPS", "city": "Detroit", "intersection_directions": null, "plus4": null, "street_address": "1001 Woodward Ave", "zip": "48226", "cng_total_storage": null, "cng_vehicle_class": null, "ev_pricing": null, "SEMMCD": 5, "NAME": "Detroit", "COUNTY": 163 }, "geometry": { "type": "Point", "coordinates": [ -83.047939, 42.332608 ] } },
{ "type": "Feature", "properties": { "station_name": "1FORDPLACE 1FP STATION 2", "updated_at": "2021-04-02T00:24:04", "facility_type": null, "geocode_status": "GPS", "city": "Detroit", "intersection_directions": null, "plus4": null, "street_address": "Ford Pl", "zip": "48202", "cng_total_storage": null, "cng_vehicle_class": null, "ev_pricing": null, "SEMMCD": 5, "NAME": "Detroit", "COUNTY": 163 }, "geometry": { "type": "Point", "coordinates": [ -83.074675, 42.364423 ] } },
{ "type": "Feature", "properties": { "station_name": "BEDROCK OCM 2", "updated_at": "2021-04-02T00:24:04", "facility_type": null, "geocode_status": "GPS", "city": "Detroit", "intersection_directions": null, "plus4": null, "street_address": "1142 Farmer St", "zip": "48226", "cng_total_storage": null, "cng_vehicle_class": null, "ev_pricing": null, "SEMMCD": 5, "NAME": "Detroit", "COUNTY": 163 }, "geometry": { "type": "Point", "coordinates": [ -83.045934, 42.333436 ] } },
{ "type": "Feature", "properties": { "station_name": "BEDROCK OCM 9", "updated_at": "2021-04-02T00:24:04", "facility_type": null, "geocode_status": "GPS", "city": "Detroit", "intersection_directions": null, "plus4": null, "street_address": "1188 Farmer St", "zip": "48226", "cng_total_storage": null, "cng_vehicle_class": null, "ev_pricing": null, "SEMMCD": 5, "NAME": "Detroit", "COUNTY": 163 }, "geometry": { "type": "Point", "coordinates": [ -83.046149, 42.333351 ] } },
{ "type": "Feature", "properties": { "station_name": "BEDROCK OCM B1 1", "updated_at": "2021-04-02T00:24:04", "facility_type": null, "geocode_status": "GPS", "city": "Detroit", "intersection_directions": null, "plus4": null, "street_address": "1 Campus Martius", "zip": "48226", "cng_total_storage": null, "cng_vehicle_class": null, "ev_pricing": null, "SEMMCD": 5, "NAME": "Detroit", "COUNTY": 163 }, "geometry": { "type": "Point", "coordinates": [ -83.046192, 42.3328 ] } },
{ "type": "Feature", "properties": { "station_name": "Atheneum Suite Hotel - Tesla Destination", "updated_at": "2021-03-11T23:22:17", "facility_type": "HOTEL", "geocode_status": "200-9", "city": "Detroit", "intersection_directions": null, "plus4": null, "street_address": "1000 Brush Ave", "zip": "48226", "cng_total_storage": null, "cng_vehicle_class": null, "ev_pricing": "Free", "SEMMCD": 5, "NAME": "Detroit", "COUNTY": 163 }, "geometry": { "type": "Point", "coordinates": [ -83.042709, 42.334002 ] } },
{ "type": "Feature", "properties": { "station_name": "The Z Deck EFF - Tesla Destination", "updated_at": "2021-03-11T23:22:17", "facility_type": "PARKING_GARAGE", "geocode_status": "200-9", "city": "Detroit", "intersection_directions": null, "plus4": null, "street_address": "1234 Library St", "zip": "48226", "cng_total_storage": null, "cng_vehicle_class": null, "ev_pricing": "Free", "SEMMCD": 5, "NAME": "Detroit", "COUNTY": 163 }, "geometry": { "type": "Point", "coordinates": [ -83.046282, 42.334348 ] } },
{ "type": "Feature", "properties": { "station_name": "One Detroit Center Garage - Tesla Destination", "updated_at": "2021-03-11T23:22:17", "facility_type": "PARKING_GARAGE", "geocode_status": "200-9", "city": "Detroit", "intersection_directions": null, "plus4": null, "street_address": "500 Woodward Ave", "zip": "48226", "cng_total_storage": null, "cng_vehicle_class": null, "ev_pricing": "Free", "SEMMCD": 5, "NAME": "Detroit", "COUNTY": 163 }, "geometry": { "type": "Point", "coordinates": [ -83.045186, 42.329945 ] } },
{ "type": "Feature", "properties": { "station_name": "Financial District Garage - Tesla Destination", "updated_at": "2021-03-11T23:22:17", "facility_type": "PARKING_GARAGE", "geocode_status": "200-9", "city": "Detroit", "intersection_directions": null, "plus4": null, "street_address": "730 Shelby", "zip": "48226", "cng_total_storage": null, "cng_vehicle_class": null, "ev_pricing": "Free", "SEMMCD": 5, "NAME": "Detroit", "COUNTY": 163 }, "geometry": { "type": "Point", "coordinates": [ -83.048796, 42.330904 ] } },
{ "type": "Feature", "properties": { "station_name": "GRANDCIRCUS EV STATION 01", "updated_at": "2021-04-02T00:24:04", "facility_type": null, "geocode_status": "GPS", "city": "Detroit", "intersection_directions": null, "plus4": null, "street_address": "Grand Circus", "zip": "48226", "cng_total_storage": null, "cng_vehicle_class": null, "ev_pricing": null, "SEMMCD": 5, "NAME": "Detroit", "COUNTY": 163 }, "geometry": { "type": "Point", "coordinates": [ -83.050824, 42.336195 ] } },
{ "type": "Feature", "properties": { "station_name": "BEDROCK GRISWOLD 1", "updated_at": "2021-04-02T00:24:04", "facility_type": null, "geocode_status": "GPS", "city": "Detroit", "intersection_directions": null, "plus4": null, "street_address": "525 Griswold St", "zip": "48226", "cng_total_storage": null, "cng_vehicle_class": null, "ev_pricing": null, "SEMMCD": 5, "NAME": "Detroit", "COUNTY": 163 }, "geometry": { "type": "Point", "coordinates": [ -83.046874, 42.329103 ] } },
{ "type": "Feature", "properties": { "station_name": "WAYNE STATE MI STATION 1", "updated_at": "2021-04-02T00:24:04", "facility_type": null, "geocode_status": "GPS", "city": "Detroit", "intersection_directions": null, "plus4": null, "street_address": "2771 Woodward Ave", "zip": "48201", "cng_total_storage": null, "cng_vehicle_class": null, "ev_pricing": null, "SEMMCD": 5, "NAME": "Detroit", "COUNTY": 163 }, "geometry": { "type": "Point", "coordinates": [ -83.055336, 42.342911 ] } },
{ "type": "Feature", "properties": { "station_name": "BEDROCK JOHN R 1", "updated_at": "2021-04-02T00:24:04", "facility_type": null, "geocode_status": "GPS", "city": "Detroit", "intersection_directions": null, "plus4": null, "street_address": "2705 John R St", "zip": "48201", "cng_total_storage": null, "cng_vehicle_class": null, "ev_pricing": null, "SEMMCD": 5, "NAME": "Detroit", "COUNTY": 163 }, "geometry": { "type": "Point", "coordinates": [ -83.052619, 42.34351 ] } },
{ "type": "Feature", "properties": { "station_name": "BLUE ENERGY 1 BEACON PARK DC4", "updated_at": "2021-04-02T00:24:04", "facility_type": null, "geocode_status": "GPS", "city": "Detroit", "intersection_directions": null, "plus4": null, "street_address": "2001 1st St", "zip": "48226", "cng_total_storage": null, "cng_vehicle_class": null, "ev_pricing": null, "SEMMCD": 5, "NAME": "Detroit", "COUNTY": 163 }, "geometry": { "type": "Point", "coordinates": [ -83.055956, 42.334972 ] } },
{ "type": "Feature", "properties": { "station_name": "BLUE ENERGY 1 BEACON PARK DC3", "updated_at": "2021-04-02T00:24:04", "facility_type": null, "geocode_status": "GPS", "city": "Detroit", "intersection_directions": null, "plus4": null, "street_address": "1971 Grand River Ave", "zip": "48226", "cng_total_storage": null, "cng_vehicle_class": null, "ev_pricing": null, "SEMMCD": 5, "NAME": "Detroit", "COUNTY": 163 }, "geometry": { "type": "Point", "coordinates": [ -83.05598, 42.33487 ] } },
{ "type": "Feature", "properties": { "station_name": "BEDROCK CORKTOWN 3", "updated_at": "2021-04-02T00:24:04", "facility_type": null, "geocode_status": "GPS", "city": "Detroit", "intersection_directions": null, "plus4": null, "street_address": "1701 W Lafayette Blvd", "zip": "48216", "cng_total_storage": null, "cng_vehicle_class": null, "ev_pricing": null, "SEMMCD": 5, "NAME": "Detroit", "COUNTY": 163 }, "geometry": { "type": "Point", "coordinates": [ -83.065702, 42.323624 ] } },
{ "type": "Feature", "properties": { "station_name": "BEDROCK CORKTOWN 1", "updated_at": "2021-04-02T00:24:04", "facility_type": null, "geocode_status": "GPS", "city": "Detroit", "intersection_directions": null, "plus4": null, "street_address": "1723 W Lafayette Blvd", "zip": "48216", "cng_total_storage": null, "cng_vehicle_class": null, "ev_pricing": null, "SEMMCD": 5, "NAME": "Detroit", "COUNTY": 163 }, "geometry": { "type": "Point", "coordinates": [ -83.065727, 42.323676 ] } },
{ "type": "Feature", "properties": { "station_name": "BEDROCK TWODETROIT2", "updated_at": "2021-04-02T00:24:04", "facility_type": null, "geocode_status": "GPS", "city": "Detroit", "intersection_directions": null, "plus4": null, "street_address": "160 E Congress St", "zip": "48226", "cng_total_storage": null, "cng_vehicle_class": null, "ev_pricing": null, "SEMMCD": 5, "NAME": "Detroit", "COUNTY": 163 }, "geometry": { "type": "Point", "coordinates": [ -83.043244, 42.330436 ] } },
{ "type": "Feature", "properties": { "station_name": "BEDROCK QLDC 1", "updated_at": "2021-04-02T00:24:04", "facility_type": null, "geocode_status": "GPS", "city": "Detroit", "intersection_directions": null, "plus4": null, "street_address": "1415 Rosa Parks Blvd", "zip": "48216", "cng_total_storage": null, "cng_vehicle_class": null, "ev_pricing": null, "SEMMCD": 5, "NAME": "Detroit", "COUNTY": 163 }, "geometry": { "type": "Point", "coordinates": [ -83.06964, 42.326576 ] } },
{ "type": "Feature", "properties": { "station_name": "Detroit Pistons Performance Center", "updated_at": "2021-03-11T23:22:17", "facility_type": "CONVENTION_CENTER", "geocode_status": "GPS", "city": "Detroit", "intersection_directions": null, "plus4": null, "street_address": "690 Amsterdam St", "zip": "48202", "cng_total_storage": null, "cng_vehicle_class": null, "ev_pricing": "Free", "SEMMCD": 5, "NAME": "Detroit", "COUNTY": 163 }, "geometry": { "type": "Point", "coordinates": [ -83.07741, 42.363404 ] } },
{ "type": "Feature", "properties": { "station_name": "BEDROCK QLDC 2", "updated_at": "2021-04-02T00:24:04", "facility_type": null, "geocode_status": "GPS", "city": "Detroit", "intersection_directions": null, "plus4": null, "street_address": "1401 Rosa Parks Blvd", "zip": "48216", "cng_total_storage": null, "cng_vehicle_class": null, "ev_pricing": null, "SEMMCD": 5, "NAME": "Detroit", "COUNTY": 163 }, "geometry": { "type": "Point", "coordinates": [ -83.069305, 42.326 ] } },
{ "type": "Feature", "properties": { "station_name": "Luxury Auto Sales", "updated_at": "2021-03-11T23:22:17", "facility_type": "CAR_DEALER", "geocode_status": "GPS", "city": "Detroit", "intersection_directions": null, "plus4": null, "street_address": "24600 Grand River Ave", "zip": "48219", "cng_total_storage": null, "cng_vehicle_class": null, "ev_pricing": null, "SEMMCD": 5, "NAME": "Detroit", "COUNTY": 163 }, "geometry": { "type": "Point", "coordinates": [ -83.2847, 42.427807 ] } },
{ "type": "Feature", "properties": { "station_name": "BEDROCK KAHN GARAGE 1", "updated_at": "2021-04-02T00:24:04", "facility_type": null, "geocode_status": "GPS", "city": "Detroit", "intersection_directions": null, "plus4": null, "street_address": "964 3rd Ave", "zip": "48226", "cng_total_storage": null, "cng_vehicle_class": null, "ev_pricing": null, "SEMMCD": 5, "NAME": "Detroit", "COUNTY": 163 }, "geometry": { "type": "Point", "coordinates": [ -83.054934, 42.328168 ] } },
{ "type": "Feature", "properties": { "station_name": "BEDROCK NEW CENTER 1", "updated_at": "2021-04-02T00:24:04", "facility_type": null, "geocode_status": "GPS", "city": "Detroit", "intersection_directions": null, "plus4": null, "street_address": "116 Lothrop Rd", "zip": "48202", "cng_total_storage": null, "cng_vehicle_class": null, "ev_pricing": null, "SEMMCD": 5, "NAME": "Detroit", "COUNTY": 163 }, "geometry": { "type": "Point", "coordinates": [ -83.076242, 42.371338 ] } },
{ "type": "Feature", "properties": { "station_name": "BEDROCK ONE DET GARAGE2", "updated_at": "2021-04-02T00:24:04", "facility_type": null, "geocode_status": "GPS", "city": "Detroit", "intersection_directions": null, "plus4": null, "street_address": "100 E Congress St", "zip": "48226", "cng_total_storage": null, "cng_vehicle_class": null, "ev_pricing": null, "SEMMCD": 5, "NAME": "Detroit", "COUNTY": 163 }, "geometry": { "type": "Point", "coordinates": [ -83.04442, 42.33044 ] } },
{ "type": "Feature", "properties": { "station_name": "BEDROCK Z DECK GRATIOT2", "updated_at": "2021-04-02T00:24:04", "facility_type": null, "geocode_status": "GPS", "city": "Detroit", "intersection_directions": null, "plus4": null, "street_address": "220 Gratiot Ave", "zip": "48226", "cng_total_storage": null, "cng_vehicle_class": null, "ev_pricing": null, "SEMMCD": 5, "NAME": "Detroit", "COUNTY": 163 }, "geometry": { "type": "Point", "coordinates": [ -83.046141, 42.33431 ] } },
{ "type": "Feature", "properties": { "station_name": "BEDROCK Z DECK GRIVER1", "updated_at": "2021-04-02T00:24:04", "facility_type": null, "geocode_status": "GPS", "city": "Detroit", "intersection_directions": null, "plus4": null, "street_address": "159 Gratiot Ave", "zip": "48226", "cng_total_storage": null, "cng_vehicle_class": null, "ev_pricing": null, "SEMMCD": 5, "NAME": "Detroit", "COUNTY": 163 }, "geometry": { "type": "Point", "coordinates": [ -83.047075, 42.334855 ] } },
{ "type": "Feature", "properties": { "station_name": "BEDROCK CASS GARAGE 1", "updated_at": "2021-04-02T00:24:04", "facility_type": null, "geocode_status": "GPS", "city": "Detroit", "intersection_directions": null, "plus4": null, "street_address": "6522 Cass Ave", "zip": "48202", "cng_total_storage": null, "cng_vehicle_class": null, "ev_pricing": null, "SEMMCD": 5, "NAME": "Detroit", "COUNTY": 163 }, "geometry": { "type": "Point", "coordinates": [ -83.074203, 42.369151 ] } },
{ "type": "Feature", "properties": { "station_name": "DET INST OF ART EV STATION 02", "updated_at": "2021-04-02T00:24:04", "facility_type": null, "geocode_status": "GPS", "city": "Detroit", "intersection_directions": null, "plus4": null, "street_address": "180 E Kirby St", "zip": "48202", "cng_total_storage": null, "cng_vehicle_class": null, "ev_pricing": null, "SEMMCD": 5, "NAME": "Detroit", "COUNTY": 163 }, "geometry": { "type": "Point", "coordinates": [ -83.064717, 42.360272 ] } },
{ "type": "Feature", "properties": { "station_name": "DET INST OF ART EV STATION 03", "updated_at": "2021-04-02T00:24:04", "facility_type": null, "geocode_status": "GPS", "city": "Detroit", "intersection_directions": null, "plus4": null, "street_address": "180 E Kirby St", "zip": "48202", "cng_total_storage": null, "cng_vehicle_class": null, "ev_pricing": null, "SEMMCD": 5, "NAME": "Detroit", "COUNTY": 163 }, "geometry": { "type": "Point", "coordinates": [ -83.064687, 42.360268 ] } },
{ "type": "Feature", "properties": { "station_name": "BEDROCK OCM 4", "updated_at": "2021-04-02T00:24:04", "facility_type": null, "geocode_status": "GPS", "city": "Detroit", "intersection_directions": null, "plus4": null, "street_address": "1142 Farmer St", "zip": "48226", "cng_total_storage": null, "cng_vehicle_class": null, "ev_pricing": null, "SEMMCD": 5, "NAME": "Detroit", "COUNTY": 163 }, "geometry": { "type": "Point", "coordinates": [ -83.045947, 42.333399 ] } },
{ "type": "Feature", "properties": { "station_name": "BEDROCK OCM 8", "updated_at": "2021-04-02T00:24:04", "facility_type": null, "geocode_status": "GPS", "city": "Detroit", "intersection_directions": null, "plus4": null, "street_address": "1142 Farmer St", "zip": "48226", "cng_total_storage": null, "cng_vehicle_class": null, "ev_pricing": null, "SEMMCD": 5, "NAME": "Detroit", "COUNTY": 163 }, "geometry": { "type": "Point", "coordinates": [ -83.045855, 42.333493 ] } },
{ "type": "Feature", "properties": { "station_name": "BEDROCK OCM 3", "updated_at": "2021-04-02T00:24:04", "facility_type": null, "geocode_status": "GPS", "city": "Detroit", "intersection_directions": null, "plus4": null, "street_address": "1142 Farmer St", "zip": "48226", "cng_total_storage": null, "cng_vehicle_class": null, "ev_pricing": null, "SEMMCD": 5, "NAME": "Detroit", "COUNTY": 163 }, "geometry": { "type": "Point", "coordinates": [ -83.045951, 42.333342 ] } },
{ "type": "Feature", "properties": { "station_name": "BEDROCK OCM 7", "updated_at": "2021-04-02T00:24:04", "facility_type": null, "geocode_status": "GPS", "city": "Detroit", "intersection_directions": null, "plus4": null, "street_address": "1142 Farmer St", "zip": "48226", "cng_total_storage": null, "cng_vehicle_class": null, "ev_pricing": null, "SEMMCD": 5, "NAME": "Detroit", "COUNTY": 163 }, "geometry": { "type": "Point", "coordinates": [ -83.045915, 42.333404 ] } },
{ "type": "Feature", "properties": { "station_name": "BEDROCK OCM 1", "updated_at": "2021-04-02T00:24:04", "facility_type": null, "geocode_status": "GPS", "city": "Detroit", "intersection_directions": null, "plus4": null, "street_address": "1142 Farmer St", "zip": "48226", "cng_total_storage": null, "cng_vehicle_class": null, "ev_pricing": null, "SEMMCD": 5, "NAME": "Detroit", "COUNTY": 163 }, "geometry": { "type": "Point", "coordinates": [ -83.045935, 42.33343 ] } },
{ "type": "Feature", "properties": { "station_name": "BEDROCK OCM 6", "updated_at": "2021-04-02T00:24:04", "facility_type": null, "geocode_status": "GPS", "city": "Detroit", "intersection_directions": null, "plus4": null, "street_address": "1188 Farmer St", "zip": "48226", "cng_total_storage": null, "cng_vehicle_class": null, "ev_pricing": null, "SEMMCD": 5, "NAME": "Detroit", "COUNTY": 163 }, "geometry": { "type": "Point", "coordinates": [ -83.04612, 42.333413 ] } },
{ "type": "Feature", "properties": { "station_name": "BEDROCK GRISWOLD 2", "updated_at": "2021-04-02T00:24:04", "facility_type": null, "geocode_status": "GPS", "city": "Detroit", "intersection_directions": null, "plus4": null, "street_address": "525 Griswold St", "zip": "48226", "cng_total_storage": null, "cng_vehicle_class": null, "ev_pricing": null, "SEMMCD": 5, "NAME": "Detroit", "COUNTY": 163 }, "geometry": { "type": "Point", "coordinates": [ -83.046932, 42.329145 ] } },
{ "type": "Feature", "properties": { "station_name": "BLUE ENERGY 1 BEACON PARK DC2", "updated_at": "2021-04-02T00:24:04", "facility_type": null, "geocode_status": "GPS", "city": "Detroit", "intersection_directions": null, "plus4": null, "street_address": "1971 Grand River Ave", "zip": "48226", "cng_total_storage": null, "cng_vehicle_class": null, "ev_pricing": null, "SEMMCD": 5, "NAME": "Detroit", "COUNTY": 163 }, "geometry": { "type": "Point", "coordinates": [ -83.056015, 42.334755 ] } },
{ "type": "Feature", "properties": { "station_name": "BLUE ENERGY 1 BEACON PARK DC1", "updated_at": "2021-04-02T00:24:04", "facility_type": null, "geocode_status": "GPS", "city": "Detroit", "intersection_directions": null, "plus4": null, "street_address": "1971 Grand River Ave", "zip": "48226", "cng_total_storage": null, "cng_vehicle_class": null, "ev_pricing": null, "SEMMCD": 5, "NAME": "Detroit", "COUNTY": 163 }, "geometry": { "type": "Point", "coordinates": [ -83.056049, 42.334638 ] } },
{ "type": "Feature", "properties": { "station_name": "BEDROCK CORKTOWN 2", "updated_at": "2021-04-02T00:24:04", "facility_type": null, "geocode_status": "GPS", "city": "Detroit", "intersection_directions": null, "plus4": null, "street_address": "1701 W Lafayette Blvd", "zip": "48216", "cng_total_storage": null, "cng_vehicle_class": null, "ev_pricing": null, "SEMMCD": 5, "NAME": "Detroit", "COUNTY": 163 }, "geometry": { "type": "Point", "coordinates": [ -83.065706, 42.323645 ] } },
{ "type": "Feature", "properties": { "station_name": "BEDROCK CORKTOWN 4", "updated_at": "2021-04-02T00:24:04", "facility_type": null, "geocode_status": "GPS", "city": "Detroit", "intersection_directions": null, "plus4": null, "street_address": "1701 W Lafayette Blvd", "zip": "48216", "cng_total_storage": null, "cng_vehicle_class": null, "ev_pricing": null, "SEMMCD": 5, "NAME": "Detroit", "COUNTY": 163 }, "geometry": { "type": "Point", "coordinates": [ -83.065679, 42.323639 ] } },
{ "type": "Feature", "properties": { "station_name": "VISN10\/Detroit VAMC", "updated_at": "2021-03-04T18:40:37", "facility_type": "FED_GOV", "geocode_status": "GPS", "city": "Detroit", "intersection_directions": null, "plus4": null, "street_address": "4646 John R St", "zip": "48201", "cng_total_storage": null, "cng_vehicle_class": null, "ev_pricing": "$0.13 per kWh", "SEMMCD": 5, "NAME": "Detroit", "COUNTY": 163 }, "geometry": { "type": "Point", "coordinates": [ -83.059203, 42.35571 ] } },
{ "type": "Feature", "properties": { "station_name": "City of Rochester - City Hall & Municipal Park", "updated_at": "2021-03-11T23:22:17", "facility_type": "MUNI_GOV", "geocode_status": "GPS", "city": "Rochester", "intersection_directions": "Dual unit in parking lot by Municipal Park, east of City Hall on northeast side of island in front of police parking pavilion, on Pine Street, by generator.", "plus4": null, "street_address": "400 6th St", "zip": "48307", "cng_total_storage": null, "cng_vehicle_class": null, "ev_pricing": "$0.25 per hour parking fee", "SEMMCD": 2230, "NAME": "Rochester", "COUNTY": 125 }, "geometry": { "type": "Point", "coordinates": [ -83.1366, 42.683212 ] } },
{ "type": "Feature", "properties": { "station_name": "City of Rochester - Huntington Bank", "updated_at": "2021-03-11T23:22:17", "facility_type": "PARKING_LOT", "geocode_status": "GPS", "city": "Rochester", "intersection_directions": "Single unit in center of city parking lot above Farmers Market lot, to the west of Huntington Bank.", "plus4": null, "street_address": "255 E 2nd St", "zip": "48307", "cng_total_storage": null, "cng_vehicle_class": null, "ev_pricing": null, "SEMMCD": 2230, "NAME": "Rochester", "COUNTY": 125 }, "geometry": { "type": "Point", "coordinates": [ -83.132684, 42.678841 ] } },
{ "type": "Feature", "properties": { "station_name": "Village of Rochester Hills", "updated_at": "2021-03-11T23:22:17", "facility_type": "SHOPPING_CENTER", "geocode_status": "GPS", "city": "Rochester Hills", "intersection_directions": "Behind Soft Surroundings", "plus4": null, "street_address": "176 N Adams Rd", "zip": "48309", "cng_total_storage": null, "cng_vehicle_class": null, "ev_pricing": "$2 per hour", "SEMMCD": 2010, "NAME": "Rochester Hills", "COUNTY": 125 }, "geometry": { "type": "Point", "coordinates": [ -83.193236, 42.682914 ] } },
{ "type": "Feature", "properties": { "station_name": "Serra Ford Rochester Hills", "updated_at": "2021-03-11T23:22:17", "facility_type": "CAR_DEALER", "geocode_status": "200-9", "city": "Rochester Hills", "intersection_directions": null, "plus4": null, "street_address": "2890 S Rochester Rd", "zip": "48307", "cng_total_storage": null, "cng_vehicle_class": null, "ev_pricing": null, "SEMMCD": 2010, "NAME": "Rochester Hills", "COUNTY": 125 }, "geometry": { "type": "Point", "coordinates": [ -83.132983, 42.638074 ] } },
{ "type": "Feature", "properties": { "station_name": "ROCHESTER HILLS THE VILLAGE", "updated_at": "2021-04-02T00:24:04", "facility_type": null, "geocode_status": "GPS", "city": "Rochester Hills", "intersection_directions": null, "plus4": null, "street_address": "104 Adams Rd", "zip": "48309", "cng_total_storage": null, "cng_vehicle_class": null, "ev_pricing": null, "SEMMCD": 2010, "NAME": "Rochester Hills", "COUNTY": 125 }, "geometry": { "type": "Point", "coordinates": [ -83.192104, 42.684393 ] } },
{ "type": "Feature", "properties": { "station_name": "RHTC EV CHARGER REAR UNIT", "updated_at": "2021-04-02T00:24:04", "facility_type": null, "geocode_status": "GPS", "city": "Rochester Hills", "intersection_directions": null, "plus4": null, "street_address": "2965 Technology Dr", "zip": "48309", "cng_total_storage": null, "cng_vehicle_class": null, "ev_pricing": null, "SEMMCD": 2010, "NAME": "Rochester Hills", "COUNTY": 125 }, "geometry": { "type": "Point", "coordinates": [ -83.193297, 42.636662 ] } },
{ "type": "Feature", "properties": { "station_name": "RHTC EV CHARGER FRONT UNIT", "updated_at": "2021-04-02T00:24:04", "facility_type": null, "geocode_status": "GPS", "city": "Rochester Hills", "intersection_directions": null, "plus4": null, "street_address": "2965 Technology Dr", "zip": "48309", "cng_total_storage": null, "cng_vehicle_class": null, "ev_pricing": null, "SEMMCD": 2010, "NAME": "Rochester Hills", "COUNTY": 125 }, "geometry": { "type": "Point", "coordinates": [ -83.194549, 42.63719 ] } },
{ "type": "Feature", "properties": { "station_name": "City of Saline - City Parking Lot #2", "updated_at": "2021-03-11T23:22:17", "facility_type": "PARKING_LOT", "geocode_status": "GPS", "city": "Saline", "intersection_directions": "Southeast of intersection of Ann Arbor Street and Michigan Avenue; single unit behind Comerica Bank in City Parking Lot #2 on northern end of center island.", "plus4": null, "street_address": "101 E Henry St", "zip": "48176", "cng_total_storage": null, "cng_vehicle_class": null, "ev_pricing": "Free", "SEMMCD": 4090, "NAME": "Saline", "COUNTY": 161 }, "geometry": { "type": "Point", "coordinates": [ -83.780162, 42.166498 ] } },
{ "type": "Feature", "properties": { "station_name": "McKay Solar", "updated_at": "2021-03-11T23:22:17", "facility_type": "STREET_PARKING", "geocode_status": "GPS", "city": "Saline", "intersection_directions": null, "plus4": null, "street_address": "104 W McKay St", "zip": "48176", "cng_total_storage": null, "cng_vehicle_class": null, "ev_pricing": "Free", "SEMMCD": 4090, "NAME": "Saline", "COUNTY": 161 }, "geometry": { "type": "Point", "coordinates": [ -83.782904, 42.167338 ] } },
{ "type": "Feature", "properties": { "station_name": "Emagine Entertainment", "updated_at": "2021-03-11T23:22:17", "facility_type": "OTHER_ENTERTAINMENT", "geocode_status": "GPS", "city": "Royal Oak", "intersection_directions": "North of Eleven Mile; corner of Main", "plus4": null, "street_address": "200 N Main St", "zip": "48067", "cng_total_storage": null, "cng_vehicle_class": null, "ev_pricing": "Free", "SEMMCD": 2075, "NAME": "Ferndale", "COUNTY": 125 }, "geometry": { "type": "Point", "coordinates": [ -83.131111, 42.455 ] } },
{ "type": "Feature", "properties": { "station_name": "Ferndale - Withington Lot", "updated_at": "2021-03-11T23:22:17", "facility_type": "PARKING_LOT", "geocode_status": "GPS", "city": "Ferndale", "intersection_directions": "Located at Woodward and Withington", "plus4": null, "street_address": "159 Withington St", "zip": "48220", "cng_total_storage": null, "cng_vehicle_class": null, "ev_pricing": "Free", "SEMMCD": 2075, "NAME": "Ferndale", "COUNTY": 125 }, "geometry": { "type": "Point", "coordinates": [ -83.1373885, 42.4610715 ] } },
{ "type": "Feature", "properties": { "station_name": "Suburban Ford - Ferndale", "updated_at": "2021-03-11T23:22:17", "facility_type": "CAR_DEALER", "geocode_status": "200-9", "city": "Ferndale", "intersection_directions": null, "plus4": null, "street_address": "21600 Woodward St", "zip": "48220", "cng_total_storage": null, "cng_vehicle_class": null, "ev_pricing": null, "SEMMCD": 2075, "NAME": "Ferndale", "COUNTY": 125 }, "geometry": { "type": "Point", "coordinates": [ -83.127736, 42.45145 ] } },
{ "type": "Feature", "properties": { "station_name": "Ferndale Public Library", "updated_at": "2021-03-11T23:22:17", "facility_type": "LIBRARY", "geocode_status": "GPS", "city": "Ferndale", "intersection_directions": "Located in the parking lot closest to Woodward St, near E Nine Mile and Bermuda", "plus4": null, "street_address": "222 E Nine Mile Rd", "zip": "48220", "cng_total_storage": null, "cng_vehicle_class": null, "ev_pricing": "$0.50 per hour parking fee", "SEMMCD": 2075, "NAME": "Ferndale", "COUNTY": 125 }, "geometry": { "type": "Point", "coordinates": [ -83.1330972, 42.460068 ] } },
{ "type": "Feature", "properties": { "station_name": "Dunkin Donuts - Ferndale", "updated_at": "2021-03-25T01:01:24", "facility_type": null, "geocode_status": "GPS", "city": "Ferndale", "intersection_directions": null, "plus4": null, "street_address": "22451 Woodward Ave", "zip": "48220", "cng_total_storage": null, "cng_vehicle_class": null, "ev_pricing": null, "SEMMCD": 2075, "NAME": "Ferndale", "COUNTY": 125 }, "geometry": { "type": "Point", "coordinates": [ -83.133054, 42.45769 ] } },
{ "type": "Feature", "properties": { "station_name": "DTE Energy - Allen Road Center", "updated_at": "2021-03-11T23:22:17", "facility_type": "PARKING_LOT", "geocode_status": "GPS", "city": "Melvindale", "intersection_directions": "Immediately south of intersection of Allen Road and Greenfield Road; two units along western edge of parking lot to the right of the entrance off of Greenfield Road.", "plus4": null, "street_address": "17150 Allen Rd", "zip": "48122", "cng_total_storage": null, "cng_vehicle_class": null, "ev_pricing": "Free", "SEMMCD": 1125, "NAME": "Melvindale", "COUNTY": 163 }, "geometry": { "type": "Point", "coordinates": [ -83.178699, 42.292146 ] } },
{ "type": "Feature", "properties": { "station_name": "DTE Energy - Ann Arbor Ashley Mews Building", "updated_at": "2021-03-11T23:22:17", "facility_type": "UTILITY", "geocode_status": "GPS", "city": "Ann Arbor", "intersection_directions": "Southeast corner of W Williams Street and S Ashley Street; in underground parking garage, entrance off of S Ashley Street; visitor parking spaces #1 and #2.", "plus4": null, "street_address": "414 S Main St", "zip": "48104", "cng_total_storage": null, "cng_vehicle_class": null, "ev_pricing": null, "SEMMCD": 4005, "NAME": "Ann Arbor", "COUNTY": 161 }, "geometry": { "type": "Point", "coordinates": [ -83.749477, 42.277419 ] } },
{ "type": "Feature", "properties": { "station_name": "Ann Arbor Downtown Development Authority - Library Parking Structure", "updated_at": "2021-03-11T23:22:17", "facility_type": "LIBRARY", "geocode_status": "200-9", "city": "Ann Arbor", "intersection_directions": "Sift between Liberty and William", "plus4": null, "street_address": "319 S Fifth Ave", "zip": "48104", "cng_total_storage": null, "cng_vehicle_class": null, "ev_pricing": "Variable parking fee", "SEMMCD": 4005, "NAME": "Ann Arbor", "COUNTY": 161 }, "geometry": { "type": "Point", "coordinates": [ -83.745565, 42.278754 ] } },
{ "type": "Feature", "properties": { "station_name": "Ann Arbor Downtown Development Authority - Ann Ashley Parking Structure", "updated_at": "2021-03-11T23:22:17", "facility_type": "PARKING_GARAGE", "geocode_status": "200-9", "city": "Ann Arbor", "intersection_directions": "Ann and Ashley", "plus4": null, "street_address": "120 W Ann St", "zip": "48104", "cng_total_storage": null, "cng_vehicle_class": null, "ev_pricing": "Variable parking fee", "SEMMCD": 4005, "NAME": "Ann Arbor", "COUNTY": 161 }, "geometry": { "type": "Point", "coordinates": [ -83.749329, 42.282617 ] } },
{ "type": "Feature", "properties": { "station_name": "Ann Arbor Downtown Development Authority - Catherine and Fourth Surface Lot", "updated_at": "2021-03-11T23:22:17", "facility_type": "PARKING_LOT", "geocode_status": "200-9", "city": "Ann Arbor", "intersection_directions": "Catherine and Fourth", "plus4": null, "street_address": "121 Catherine St", "zip": "48104", "cng_total_storage": null, "cng_vehicle_class": null, "ev_pricing": "Variable parking fee", "SEMMCD": 4005, "NAME": "Ann Arbor", "COUNTY": 161 }, "geometry": { "type": "Point", "coordinates": [ -83.747496, 42.283504 ] } },
{ "type": "Feature", "properties": { "station_name": "Ann Arbor Downtown Development Authority - Forrest Parking Structure", "updated_at": "2021-03-11T23:22:17", "facility_type": "PARKING_GARAGE", "geocode_status": "GPS", "city": "Ann Arbor", "intersection_directions": "Forrest and S University", "plus4": null, "street_address": "650 Forrest St", "zip": "48104", "cng_total_storage": null, "cng_vehicle_class": null, "ev_pricing": "Variable parking fee", "SEMMCD": 4005, "NAME": "Ann Arbor", "COUNTY": 161 }, "geometry": { "type": "Point", "coordinates": [ -83.733542, 42.274044 ] } },
{ "type": "Feature", "properties": { "station_name": "Ann Arbor Downtown Development Authority - Maynard Parking Structure", "updated_at": "2021-03-11T23:22:17", "facility_type": "PARKING_GARAGE", "geocode_status": "200-9", "city": "Ann Arbor", "intersection_directions": "Maynard between Liberty and William", "plus4": null, "street_address": "316 Maynard St", "zip": "48104", "cng_total_storage": null, "cng_vehicle_class": null, "ev_pricing": "Variable parking fee", "SEMMCD": 4005, "NAME": "Ann Arbor", "COUNTY": 161 }, "geometry": { "type": "Point", "coordinates": [ -83.742596, 42.278668 ] } },
{ "type": "Feature", "properties": { "station_name": "Ann Arbor Downtown Development Authority - William Street Parking Structure", "updated_at": "2021-03-11T23:22:17", "facility_type": "PARKING_GARAGE", "geocode_status": "200-9", "city": "Ann Arbor", "intersection_directions": "William and Main", "plus4": null, "street_address": "115 William St", "zip": "48104", "cng_total_storage": null, "cng_vehicle_class": null, "ev_pricing": "Variable parking fee", "SEMMCD": 4005, "NAME": "Ann Arbor", "COUNTY": 161 }, "geometry": { "type": "Point", "coordinates": [ -83.747741, 42.278461 ] } },
{ "type": "Feature", "properties": { "station_name": "U-M ANN ARBOR ANN STREET #2", "updated_at": "2021-04-02T00:24:04", "facility_type": null, "geocode_status": "GPS", "city": "Ann Arbor", "intersection_directions": null, "plus4": null, "street_address": "1101-1189 E Ann St", "zip": "48104", "cng_total_storage": null, "cng_vehicle_class": null, "ev_pricing": null, "SEMMCD": 4005, "NAME": "Ann Arbor", "COUNTY": 161 }, "geometry": { "type": "Point", "coordinates": [ -83.734901, 42.282494 ] } },
{ "type": "Feature", "properties": { "station_name": "U-M ANN ARBOR ICL EDU #1", "updated_at": "2021-04-02T00:24:04", "facility_type": null, "geocode_status": "GPS", "city": "Ann Arbor", "intersection_directions": null, "plus4": null, "street_address": "1000 Greene St", "zip": "48104", "cng_total_storage": null, "cng_vehicle_class": null, "ev_pricing": null, "SEMMCD": 4005, "NAME": "Ann Arbor", "COUNTY": 161 }, "geometry": { "type": "Point", "coordinates": [ -83.747765, 42.268749 ] } },
{ "type": "Feature", "properties": { "station_name": "U-M ANN ARBOR WALGREEN #1", "updated_at": "2021-04-02T00:24:04", "facility_type": null, "geocode_status": "GPS", "city": "Ann Arbor", "intersection_directions": null, "plus4": null, "street_address": "1300 Murfin Ave", "zip": "48109", "cng_total_storage": null, "cng_vehicle_class": null, "ev_pricing": null, "SEMMCD": 4005, "NAME": "Ann Arbor", "COUNTY": 161 }, "geometry": { "type": "Point", "coordinates": [ -83.717819, 42.292286 ] } },
{ "type": "Feature", "properties": { "station_name": "U-M ANN ARBOR WALL STREET #2", "updated_at": "2021-04-02T00:24:04", "facility_type": null, "geocode_status": "GPS", "city": "Ann Arbor", "intersection_directions": null, "plus4": null, "street_address": "1041 Wall St", "zip": "48105", "cng_total_storage": null, "cng_vehicle_class": null, "ev_pricing": null, "SEMMCD": 4005, "NAME": "Ann Arbor", "COUNTY": 161 }, "geometry": { "type": "Point", "coordinates": [ -83.734814, 42.287965 ] } },
{ "type": "Feature", "properties": { "station_name": "Varsity Ford", "updated_at": "2021-03-11T23:22:17", "facility_type": "CAR_DEALER", "geocode_status": "200-9", "city": "Ann Arbor", "intersection_directions": null, "plus4": null, "street_address": "3480 Jackson Rd", "zip": "48103", "cng_total_storage": null, "cng_vehicle_class": null, "ev_pricing": null, "SEMMCD": 4005, "NAME": "Ann Arbor", "COUNTY": 161 }, "geometry": { "type": "Point", "coordinates": [ -83.797918, 42.285984 ] } },
{ "type": "Feature", "properties": { "station_name": "Ann Arbor Downtown Development Authority - Ashley and Washington Parking Structure", "updated_at": "2021-03-11T23:22:17", "facility_type": "PAY_GARAGE", "geocode_status": "GPS", "city": "Ann Arbor", "intersection_directions": "Washington and Ashley", "plus4": null, "street_address": "215 W Washington", "zip": "48104", "cng_total_storage": null, "cng_vehicle_class": null, "ev_pricing": "Variable parking fee", "SEMMCD": 4005, "NAME": "Ann Arbor", "COUNTY": 161 }, "geometry": { "type": "Point", "coordinates": [ -83.7504773, 42.2805401 ] } },
{ "type": "Feature", "properties": { "station_name": "First Martin", "updated_at": "2021-03-11T23:22:17", "facility_type": "OFFICE_BLDG", "geocode_status": "200-9", "city": "Ann Arbor", "intersection_directions": null, "plus4": null, "street_address": "115 Depot St", "zip": "48104", "cng_total_storage": null, "cng_vehicle_class": null, "ev_pricing": null, "SEMMCD": 4005, "NAME": "Ann Arbor", "COUNTY": 161 }, "geometry": { "type": "Point", "coordinates": [ -83.746518, 42.288951 ] } },
{ "type": "Feature", "properties": { "station_name": "Shell", "updated_at": "2021-03-25T01:01:24", "facility_type": null, "geocode_status": "GPS", "city": "Ann Arbor", "intersection_directions": null, "plus4": null, "street_address": "2991 S State St", "zip": "48104", "cng_total_storage": null, "cng_vehicle_class": null, "ev_pricing": null, "SEMMCD": 4005, "NAME": "Ann Arbor", "COUNTY": 161 }, "geometry": { "type": "Point", "coordinates": [ -83.738976, 42.244709 ] } },
{ "type": "Feature", "properties": { "station_name": "Sheraton Ann Arbor Hotel - Tesla Destination", "updated_at": "2021-03-11T23:22:17", "facility_type": "HOTEL", "geocode_status": "200-8", "city": "Ann Arbor", "intersection_directions": null, "plus4": null, "street_address": "3200 Boardwalk Dr", "zip": "48108", "cng_total_storage": null, "cng_vehicle_class": null, "ev_pricing": "Free", "SEMMCD": 4005, "NAME": "Ann Arbor", "COUNTY": 161 }, "geometry": { "type": "Point", "coordinates": [ -83.73488, 42.241306 ] } },
{ "type": "Feature", "properties": { "station_name": "U-M ANN ARBOR NCRC STATION 2", "updated_at": "2021-04-02T00:24:04", "facility_type": null, "geocode_status": "GPS", "city": "Ann Arbor", "intersection_directions": null, "plus4": null, "street_address": "NCRC", "zip": "48105", "cng_total_storage": null, "cng_vehicle_class": null, "ev_pricing": null, "SEMMCD": 4005, "NAME": "Ann Arbor", "COUNTY": 161 }, "geometry": { "type": "Point", "coordinates": [ -83.706596, 42.301375 ] } },
{ "type": "Feature", "properties": { "station_name": "FLEET SERVICES CITY HALL STA 4", "updated_at": "2021-04-02T00:24:04", "facility_type": null, "geocode_status": "GPS", "city": "Ann Arbor", "intersection_directions": null, "plus4": null, "street_address": "301 E Huron St", "zip": "48104", "cng_total_storage": null, "cng_vehicle_class": null, "ev_pricing": null, "SEMMCD": 4005, "NAME": "Ann Arbor", "COUNTY": 161 }, "geometry": { "type": "Point", "coordinates": [ -83.74472, 42.281704 ] } },
{ "type": "Feature", "properties": { "station_name": "FLEET SERVICES POLICE SPACE #6", "updated_at": "2021-04-02T00:24:04", "facility_type": null, "geocode_status": "GPS", "city": "Ann Arbor, MI", "intersection_directions": null, "plus4": null, "street_address": "301 E. Huron Street", "zip": "48104", "cng_total_storage": null, "cng_vehicle_class": null, "ev_pricing": null, "SEMMCD": 4005, "NAME": "Ann Arbor", "COUNTY": 161 }, "geometry": { "type": "Point", "coordinates": [ -83.74484, 42.28181 ] } },
{ "type": "Feature", "properties": { "station_name": "Car & Driver - Tesla Destination", "updated_at": "2021-03-11T23:22:17", "facility_type": null, "geocode_status": "200-8", "city": "Ann Arbor", "intersection_directions": null, "plus4": null, "street_address": "1585 Eisenhower Place", "zip": "48108", "cng_total_storage": null, "cng_vehicle_class": null, "ev_pricing": "Free", "SEMMCD": 4005, "NAME": "Ann Arbor", "COUNTY": 161 }, "geometry": { "type": "Point", "coordinates": [ -83.729527, 42.238068 ] } },
{ "type": "Feature", "properties": { "station_name": "U-M ANN ARBOR ANN STREET  #1", "updated_at": "2021-04-02T00:24:04", "facility_type": null, "geocode_status": "GPS", "city": "Ann Arbor", "intersection_directions": null, "plus4": null, "street_address": "1101-1189 E Ann St", "zip": "48104", "cng_total_storage": null, "cng_vehicle_class": null, "ev_pricing": null, "SEMMCD": 4005, "NAME": "Ann Arbor", "COUNTY": 161 }, "geometry": { "type": "Point", "coordinates": [ -83.734932, 42.28249 ] } },
{ "type": "Feature", "properties": { "station_name": "U-M ANN ARBOR ANN STREET #3", "updated_at": "2021-04-02T00:24:04", "facility_type": null, "geocode_status": "GPS", "city": "Ann Arbor", "intersection_directions": null, "plus4": null, "street_address": "1101-1189 E. Ann St", "zip": "48104", "cng_total_storage": null, "cng_vehicle_class": null, "ev_pricing": null, "SEMMCD": 4005, "NAME": "Ann Arbor", "COUNTY": 161 }, "geometry": { "type": "Point", "coordinates": [ -83.734845, 42.282488 ] } },
{ "type": "Feature", "properties": { "station_name": "U-M ANN ARBOR WALL STREET #1", "updated_at": "2021-04-02T00:24:04", "facility_type": null, "geocode_status": "GPS", "city": "Ann Arbor", "intersection_directions": null, "plus4": null, "street_address": "1041 Wall St", "zip": "48105", "cng_total_storage": null, "cng_vehicle_class": null, "ev_pricing": null, "SEMMCD": 4005, "NAME": "Ann Arbor", "COUNTY": 161 }, "geometry": { "type": "Point", "coordinates": [ -83.734739, 42.28802 ] } },
{ "type": "Feature", "properties": { "station_name": "U-M ANN ARBOR NCRC STATION 1", "updated_at": "2021-04-02T00:24:04", "facility_type": null, "geocode_status": "GPS", "city": "Ann Arbor", "intersection_directions": null, "plus4": null, "street_address": "NCRC", "zip": "48105", "cng_total_storage": null, "cng_vehicle_class": null, "ev_pricing": null, "SEMMCD": 4005, "NAME": "Ann Arbor", "COUNTY": 161 }, "geometry": { "type": "Point", "coordinates": [ -83.7064, 42.30123 ] } },
{ "type": "Feature", "properties": { "station_name": "FLEET SERVICES POLICE SPACE #5", "updated_at": "2021-04-02T00:24:04", "facility_type": null, "geocode_status": "GPS", "city": "Ann Arbor", "intersection_directions": null, "plus4": null, "street_address": "301 E Huron St", "zip": "48104", "cng_total_storage": null, "cng_vehicle_class": null, "ev_pricing": null, "SEMMCD": 4005, "NAME": "Ann Arbor", "COUNTY": 161 }, "geometry": { "type": "Point", "coordinates": [ -83.744835, 42.281853 ] } },
{ "type": "Feature", "properties": { "station_name": "BEEKMAN BEEKMAN ST1", "updated_at": "2021-04-02T00:24:04", "facility_type": null, "geocode_status": "GPS", "city": "Ann Arbor", "intersection_directions": null, "plus4": null, "street_address": "1200 Broadway St", "zip": "48105", "cng_total_storage": null, "cng_vehicle_class": null, "ev_pricing": null, "SEMMCD": 4005, "NAME": "Ann Arbor", "COUNTY": 161 }, "geometry": { "type": "Point", "coordinates": [ -83.737351, 42.290061 ] } },
{ "type": "Feature", "properties": { "station_name": "EPA Ann Arbor - Station 1", "updated_at": "2021-03-04T18:40:37", "facility_type": "FED_GOV", "geocode_status": "GPS", "city": "Ann Arbor", "intersection_directions": null, "plus4": null, "street_address": "2565 Plymouth Rd", "zip": "48105", "cng_total_storage": null, "cng_vehicle_class": null, "ev_pricing": null, "SEMMCD": 4005, "NAME": "Ann Arbor", "COUNTY": 161 }, "geometry": { "type": "Point", "coordinates": [ -83.710984, 42.303847 ] } },
{ "type": "Feature", "properties": { "station_name": "EPA Ann Arbor - Station 2", "updated_at": "2021-03-04T18:40:37", "facility_type": "FED_GOV", "geocode_status": "GPS", "city": "Ann Arbor", "intersection_directions": null, "plus4": null, "street_address": "2565 Plymouth Rd", "zip": "48105", "cng_total_storage": null, "cng_vehicle_class": null, "ev_pricing": "Free", "SEMMCD": 4005, "NAME": "Ann Arbor", "COUNTY": 161 }, "geometry": { "type": "Point", "coordinates": [ -83.710984, 42.303847 ] } },
{ "type": "Feature", "properties": { "station_name": "DTE Energy - Redford Service Center", "updated_at": "2021-03-11T23:22:17", "facility_type": "UTILITY", "geocode_status": "GPS", "city": "Redford", "intersection_directions": "On the south wall of the first building to the north of the main entrance building, between the road and the security gate, in the first two spots to the east of the building's side entrance door.", "plus4": null, "street_address": "12000 Dixie", "zip": "48239", "cng_total_storage": null, "cng_vehicle_class": null, "ev_pricing": null, "SEMMCD": 1150, "NAME": "Redford Twp", "COUNTY": 163 }, "geometry": { "type": "Point", "coordinates": [ -83.281933, 42.374558 ] } },
{ "type": "Feature", "properties": { "station_name": "Pat Miliken Ford", "updated_at": "2021-03-11T23:22:17", "facility_type": "CAR_DEALER", "geocode_status": "200-9", "city": "Redford", "intersection_directions": "Telegraph Rd between Plymouth and W Chicago", "plus4": null, "street_address": "9600 Telegraph Rd", "zip": "48239", "cng_total_storage": null, "cng_vehicle_class": null, "ev_pricing": "Free", "SEMMCD": 1150, "NAME": "Redford Twp", "COUNTY": 163 }, "geometry": { "type": "Point", "coordinates": [ -83.27467, 42.367851 ] } },
{ "type": "Feature", "properties": { "station_name": "Pat Miliken Ford", "updated_at": "2021-03-11T23:22:17", "facility_type": "CAR_DEALER", "geocode_status": "200-9", "city": "Redford", "intersection_directions": "Telegraph Rd between Plymouth and W Chicago", "plus4": null, "street_address": "9600 Telegraph Rd", "zip": "48239", "cng_total_storage": null, "cng_vehicle_class": null, "ev_pricing": null, "SEMMCD": 1150, "NAME": "Redford Twp", "COUNTY": 163 }, "geometry": { "type": "Point", "coordinates": [ -83.27467, 42.367851 ] } },
{ "type": "Feature", "properties": { "station_name": "CITY OF STCLAIR PALMER PARK #1", "updated_at": "2021-04-02T00:24:04", "facility_type": null, "geocode_status": "GPS", "city": "St Clair", "intersection_directions": null, "plus4": null, "street_address": "201 N Riverside Ave", "zip": "48079", "cng_total_storage": null, "cng_vehicle_class": null, "ev_pricing": null, "SEMMCD": 6150, "NAME": "St. Clair", "COUNTY": 147 }, "geometry": { "type": "Point", "coordinates": [ -82.485062, 42.825718 ] } },
{ "type": "Feature", "properties": { "station_name": "CITY OF STCLAIR ROTARY PARK #1", "updated_at": "2021-04-02T00:24:04", "facility_type": null, "geocode_status": "GPS", "city": "St Clair", "intersection_directions": null, "plus4": null, "street_address": "331 Clinton", "zip": "48079", "cng_total_storage": null, "cng_vehicle_class": null, "ev_pricing": null, "SEMMCD": 6150, "NAME": "St. Clair", "COUNTY": 147 }, "geometry": { "type": "Point", "coordinates": [ -82.488892, 42.820992 ] } },
{ "type": "Feature", "properties": { "station_name": "WALSH COLLEGE T WALSH OF TROY#1", "updated_at": "2021-04-02T00:24:04", "facility_type": null, "geocode_status": "GPS", "city": "Troy", "intersection_directions": null, "plus4": null, "street_address": "3838 Livernois Rd", "zip": "48083", "cng_total_storage": null, "cng_vehicle_class": null, "ev_pricing": null, "SEMMCD": 2270, "NAME": "Troy", "COUNTY": 125 }, "geometry": { "type": "Point", "coordinates": [ -83.145241, 42.573978 ] } },
{ "type": "Feature", "properties": { "station_name": "Suburban Nissan - Troy", "updated_at": "2021-03-11T23:22:17", "facility_type": "CAR_DEALER", "geocode_status": "200-9", "city": "Troy", "intersection_directions": null, "plus4": null, "street_address": "1800 Maplelawn Dr", "zip": "48084", "cng_total_storage": null, "cng_vehicle_class": null, "ev_pricing": "Free", "SEMMCD": 2270, "NAME": "Troy", "COUNTY": 125 }, "geometry": { "type": "Point", "coordinates": [ -83.175063, 42.553452 ] } },
{ "type": "Feature", "properties": { "station_name": "Suburban Nissan - Troy", "updated_at": "2021-03-11T23:22:17", "facility_type": "CAR_DEALER", "geocode_status": "200-9", "city": "Troy", "intersection_directions": null, "plus4": null, "street_address": "1800 Maplelawn Dr", "zip": "48084", "cng_total_storage": null, "cng_vehicle_class": null, "ev_pricing": null, "SEMMCD": 2270, "NAME": "Troy", "COUNTY": 125 }, "geometry": { "type": "Point", "coordinates": [ -83.175063, 42.553452 ] } },
{ "type": "Feature", "properties": { "station_name": "MAGNA ECAR TROY VISITOR 01", "updated_at": "2021-04-02T00:24:04", "facility_type": null, "geocode_status": "GPS", "city": "Troy", "intersection_directions": null, "plus4": null, "street_address": "750 Tower Dr", "zip": "48098", "cng_total_storage": null, "cng_vehicle_class": null, "ev_pricing": null, "SEMMCD": 2270, "NAME": "Troy", "COUNTY": 125 }, "geometry": { "type": "Point", "coordinates": [ -83.162839, 42.594177 ] } },
{ "type": "Feature", "properties": { "station_name": "900 TOWER 900 TOWER", "updated_at": "2021-04-02T00:24:04", "facility_type": null, "geocode_status": "GPS", "city": "Troy", "intersection_directions": null, "plus4": null, "street_address": "900 Tower Dr", "zip": "48098", "cng_total_storage": null, "cng_vehicle_class": null, "ev_pricing": null, "SEMMCD": 2270, "NAME": "Troy", "COUNTY": 125 }, "geometry": { "type": "Point", "coordinates": [ -83.167094, 42.596955 ] } },
{ "type": "Feature", "properties": { "station_name": "AUTOMATIONALLEY AUTOMATIONALLEY", "updated_at": "2021-04-02T00:24:04", "facility_type": null, "geocode_status": "GPS", "city": "Troy", "intersection_directions": null, "plus4": null, "street_address": "2675 Bellingham dr 2675 Bellingham dr", "zip": "48083", "cng_total_storage": null, "cng_vehicle_class": null, "ev_pricing": null, "SEMMCD": 2270, "NAME": "Troy", "COUNTY": 125 }, "geometry": { "type": "Point", "coordinates": [ -83.11586, 42.560065 ] } },
{ "type": "Feature", "properties": { "station_name": "Hilton Garden Inn Troy - Tesla Destination", "updated_at": "2021-03-11T23:22:17", "facility_type": "HOTEL", "geocode_status": "200-9", "city": "Troy", "intersection_directions": null, "plus4": null, "street_address": "200 Wilshire Dr", "zip": "48084", "cng_total_storage": null, "cng_vehicle_class": null, "ev_pricing": "Free", "SEMMCD": 2270, "NAME": "Troy", "COUNTY": 125 }, "geometry": { "type": "Point", "coordinates": [ -83.160673, 42.564414 ] } },
{ "type": "Feature", "properties": { "station_name": "SOMERSETLEASING LEASING", "updated_at": "2021-04-02T00:24:04", "facility_type": null, "geocode_status": "GPS", "city": "Troy", "intersection_directions": null, "plus4": null, "street_address": "1911 Golfview Drive", "zip": "48084", "cng_total_storage": null, "cng_vehicle_class": null, "ev_pricing": null, "SEMMCD": 2270, "NAME": "Troy", "COUNTY": 125 }, "geometry": { "type": "Point", "coordinates": [ -83.172882, 42.556722 ] } },
{ "type": "Feature", "properties": { "station_name": "Lebanese Grill", "updated_at": "2021-03-11T23:22:17", "facility_type": "RESTAURANT", "geocode_status": "GPS", "city": "Troy", "intersection_directions": null, "plus4": null, "street_address": "1600 Rochester Rd", "zip": "48083", "cng_total_storage": null, "cng_vehicle_class": null, "ev_pricing": null, "SEMMCD": 2270, "NAME": "Troy", "COUNTY": 125 }, "geometry": { "type": "Point", "coordinates": [ -83.13169, 42.549105 ] } },
{ "type": "Feature", "properties": { "station_name": "VENTURECHARGERS STATION 2", "updated_at": "2021-04-02T00:24:04", "facility_type": null, "geocode_status": "GPS", "city": "Troy", "intersection_directions": null, "plus4": null, "street_address": "3150 Livernois Rd", "zip": "48083", "cng_total_storage": null, "cng_vehicle_class": null, "ev_pricing": null, "SEMMCD": 2270, "NAME": "Troy", "COUNTY": 125 }, "geometry": { "type": "Point", "coordinates": [ -83.146881, 42.563116 ] } },
{ "type": "Feature", "properties": { "station_name": "MAGNA ECAR TROY VISITOR 02", "updated_at": "2021-04-02T00:24:04", "facility_type": null, "geocode_status": "GPS", "city": "Troy", "intersection_directions": null, "plus4": null, "street_address": "750 Tower Dr", "zip": "48098", "cng_total_storage": null, "cng_vehicle_class": null, "ev_pricing": null, "SEMMCD": 2270, "NAME": "Troy", "COUNTY": 125 }, "geometry": { "type": "Point", "coordinates": [ -83.162855, 42.594161 ] } },
{ "type": "Feature", "properties": { "station_name": "WALSH COLLEGE T WALSH OF TROY#3", "updated_at": "2021-04-02T00:24:04", "facility_type": null, "geocode_status": "GPS", "city": "Troy", "intersection_directions": null, "plus4": null, "street_address": "3838 Livernois Rd", "zip": "48083", "cng_total_storage": null, "cng_vehicle_class": null, "ev_pricing": null, "SEMMCD": 2270, "NAME": "Troy", "COUNTY": 125 }, "geometry": { "type": "Point", "coordinates": [ -83.145241, 42.573845 ] } },
{ "type": "Feature", "properties": { "station_name": "WALSH COLLEGE T WALSH OF TROY#2", "updated_at": "2021-04-02T00:24:04", "facility_type": null, "geocode_status": "GPS", "city": "Troy", "intersection_directions": null, "plus4": null, "street_address": "3838 Livernois Rd", "zip": "48083", "cng_total_storage": null, "cng_vehicle_class": null, "ev_pricing": null, "SEMMCD": 2270, "NAME": "Troy", "COUNTY": 125 }, "geometry": { "type": "Point", "coordinates": [ -83.145241, 42.57391 ] } },
{ "type": "Feature", "properties": { "station_name": "VENTURECHARGERS STATION 1", "updated_at": "2021-04-02T00:24:04", "facility_type": null, "geocode_status": "GPS", "city": "Troy", "intersection_directions": null, "plus4": null, "street_address": "3150 Livernois Rd", "zip": "48083", "cng_total_storage": null, "cng_vehicle_class": null, "ev_pricing": null, "SEMMCD": 2270, "NAME": "Troy", "COUNTY": 125 }, "geometry": { "type": "Point", "coordinates": [ -83.146878, 42.563149 ] } },
{ "type": "Feature", "properties": { "station_name": "KISTLER TC-AM STATION 1", "updated_at": "2021-04-02T00:24:04", "facility_type": null, "geocode_status": "GPS", "city": "Novi", "intersection_directions": null, "plus4": null, "street_address": "30280 Hudson Dr", "zip": "48377", "cng_total_storage": null, "cng_vehicle_class": null, "ev_pricing": null, "SEMMCD": 2170, "NAME": "Novi", "COUNTY": 125 }, "geometry": { "type": "Point", "coordinates": [ -83.510101, 42.518055 ] } },
{ "type": "Feature", "properties": { "station_name": "NEMC GREEN HCOC III", "updated_at": "2021-04-02T00:24:04", "facility_type": null, "geocode_status": "GPS", "city": "Novi", "intersection_directions": null, "plus4": null, "street_address": "28100 Cabot Dr", "zip": "48377", "cng_total_storage": null, "cng_vehicle_class": null, "ev_pricing": null, "SEMMCD": 2170, "NAME": "Novi", "COUNTY": 125 }, "geometry": { "type": "Point", "coordinates": [ -83.439339, 42.499039 ] } },
{ "type": "Feature", "properties": { "station_name": "USA 2 Go", "updated_at": "2021-03-25T01:01:24", "facility_type": null, "geocode_status": "GPS", "city": "Novi", "intersection_directions": null, "plus4": null, "street_address": "47300 Citygate Dr", "zip": "48374", "cng_total_storage": null, "cng_vehicle_class": null, "ev_pricing": null, "SEMMCD": 2170, "NAME": "Novi", "COUNTY": 125 }, "geometry": { "type": "Point", "coordinates": [ -83.514365, 42.491223 ] } },
{ "type": "Feature", "properties": { "station_name": "Feldman Chevrolet - Novi", "updated_at": "2021-03-11T23:22:17", "facility_type": "CAR_DEALER", "geocode_status": "GPS", "city": "Novi", "intersection_directions": null, "plus4": null, "street_address": "42355 Grand River Ave", "zip": "48375", "cng_total_storage": null, "cng_vehicle_class": null, "ev_pricing": "Free", "SEMMCD": 2170, "NAME": "Novi", "COUNTY": 125 }, "geometry": { "type": "Point", "coordinates": [ -83.465085, 42.477793 ] } },
{ "type": "Feature", "properties": { "station_name": "Walmart 5893 - Novi, MI", "updated_at": "2021-04-02T01:15:58", "facility_type": null, "geocode_status": "GPS", "city": "Novi", "intersection_directions": null, "plus4": null, "street_address": "26090 Ingersol Dr", "zip": "48375", "cng_total_storage": null, "cng_vehicle_class": null, "ev_pricing": null, "SEMMCD": 2170, "NAME": "Novi", "COUNTY": 125 }, "geometry": { "type": "Point", "coordinates": [ -83.472597, 42.482039 ] } },
{ "type": "Feature", "properties": { "station_name": "KISTLER TC-AM STATION 3", "updated_at": "2021-04-02T00:24:04", "facility_type": null, "geocode_status": "GPS", "city": "Novi", "intersection_directions": null, "plus4": null, "street_address": "30280 Hudson Dr", "zip": "48377", "cng_total_storage": null, "cng_vehicle_class": null, "ev_pricing": null, "SEMMCD": 2170, "NAME": "Novi", "COUNTY": 125 }, "geometry": { "type": "Point", "coordinates": [ -83.509941, 42.518055 ] } },
{ "type": "Feature", "properties": { "station_name": "KISTLER TC-AM STATION 2", "updated_at": "2021-04-02T00:24:04", "facility_type": null, "geocode_status": "GPS", "city": "Novi", "intersection_directions": null, "plus4": null, "street_address": "30280 Hudson Dr", "zip": "48377", "cng_total_storage": null, "cng_vehicle_class": null, "ev_pricing": null, "SEMMCD": 2170, "NAME": "Novi", "COUNTY": 125 }, "geometry": { "type": "Point", "coordinates": [ -83.510017, 42.518055 ] } },
{ "type": "Feature", "properties": { "station_name": "Novi Public Library", "updated_at": "2021-03-15T13:14:11", "facility_type": "LIBRARY", "geocode_status": "GPS", "city": "Novi", "intersection_directions": null, "plus4": null, "street_address": "45255 W 10 Mile Rd", "zip": "48375", "cng_total_storage": null, "cng_vehicle_class": null, "ev_pricing": null, "SEMMCD": 2170, "NAME": "Novi", "COUNTY": 125 }, "geometry": { "type": "Point", "coordinates": [ -83.491247, 42.464971 ] } },
{ "type": "Feature", "properties": { "station_name": "DTE Energy - Western Wayne Center", "updated_at": "2021-03-11T23:22:17", "facility_type": "OFFICE_BLDG", "geocode_status": "GPS", "city": "Belleville", "intersection_directions": "South of intersection of Haggerty Road and Ecorse Road on east side of Haggerty; two easternmost parking spaces along southernmost face of main building.", "plus4": null, "street_address": "8001 Haggerty Rd", "zip": "48111", "cng_total_storage": null, "cng_vehicle_class": null, "ev_pricing": "Free", "SEMMCD": 1200, "NAME": "Van Buren Twp", "COUNTY": 163 }, "geometry": { "type": "Point", "coordinates": [ -83.444131, 42.244351 ] } },
{ "type": "Feature", "properties": { "station_name": "Atchinson Ford", "updated_at": "2021-03-11T23:22:17", "facility_type": "CAR_DEALER", "geocode_status": "200-9", "city": "Belleville", "intersection_directions": null, "plus4": null, "street_address": "9800 Belleville Rd", "zip": "48111", "cng_total_storage": null, "cng_vehicle_class": null, "ev_pricing": null, "SEMMCD": 1200, "NAME": "Van Buren Twp", "COUNTY": 163 }, "geometry": { "type": "Point", "coordinates": [ -83.485851, 42.23113 ] } },
{ "type": "Feature", "properties": { "station_name": "Dunkin' Donuts", "updated_at": "2021-03-25T01:01:24", "facility_type": null, "geocode_status": "GPS", "city": "Belleville", "intersection_directions": null, "plus4": null, "street_address": "10950 Belleville Rd", "zip": "48111", "cng_total_storage": null, "cng_vehicle_class": null, "ev_pricing": null, "SEMMCD": 1200, "NAME": "Van Buren Twp", "COUNTY": 163 }, "geometry": { "type": "Point", "coordinates": [ -83.48551, 42.222985 ] } },
{ "type": "Feature", "properties": { "station_name": "Atchinson Ford", "updated_at": "2021-03-11T23:22:17", "facility_type": "CAR_DEALER", "geocode_status": "200-9", "city": "Belleville", "intersection_directions": null, "plus4": null, "street_address": "9800 Belleville Rd", "zip": "48111", "cng_total_storage": null, "cng_vehicle_class": null, "ev_pricing": "Free", "SEMMCD": 1200, "NAME": "Van Buren Twp", "COUNTY": 163 }, "geometry": { "type": "Point", "coordinates": [ -83.485851, 42.23113 ] } },
{ "type": "Feature", "properties": { "station_name": "DTE Energy - Pontiac Service Center", "updated_at": "2021-03-11T23:22:17", "facility_type": "UTILITY", "geocode_status": "GPS", "city": "Bloomfield Township", "intersection_directions": "Southwest of intersection of Orchard Lake Road and S Telegraph Road\/US-24; first parking space along road southwest of southwestern most entrance.", "plus4": null, "street_address": "1970 Orchard Lake Rd", "zip": "48320", "cng_total_storage": null, "cng_vehicle_class": null, "ev_pricing": null, "SEMMCD": 2040, "NAME": "Bloomfield Twp", "COUNTY": 125 }, "geometry": { "type": "Point", "coordinates": [ -83.324374, 42.615654 ] } },
{ "type": "Feature", "properties": { "station_name": "Beau's Grillery - Tesla Destination", "updated_at": "2021-03-11T23:22:17", "facility_type": "RESTAURANT", "geocode_status": "200-9", "city": "Bloomfield Hills", "intersection_directions": null, "plus4": null, "street_address": "4108 Maple Rd", "zip": "48301", "cng_total_storage": null, "cng_vehicle_class": null, "ev_pricing": "Free", "SEMMCD": 2040, "NAME": "Bloomfield Twp", "COUNTY": 125 }, "geometry": { "type": "Point", "coordinates": [ -83.286912, 42.545239 ] } },
{ "type": "Feature", "properties": { "station_name": "Beaus Grillery - Tesla Destination", "updated_at": "2021-03-11T23:22:17", "facility_type": null, "geocode_status": "200-9", "city": "Bloomfield Hills", "intersection_directions": null, "plus4": null, "street_address": "4108 Maple Rd", "zip": "48301", "cng_total_storage": null, "cng_vehicle_class": null, "ev_pricing": "Free", "SEMMCD": 2040, "NAME": "Bloomfield Twp", "COUNTY": 125 }, "geometry": { "type": "Point", "coordinates": [ -83.286912, 42.545239 ] } },
{ "type": "Feature", "properties": { "station_name": "ERHARD BMW STATION 01", "updated_at": "2021-04-02T00:24:04", "facility_type": null, "geocode_status": "GPS", "city": "Bloomfield Township", "intersection_directions": null, "plus4": null, "street_address": "1845 S Telegraph Rd", "zip": "48302", "cng_total_storage": null, "cng_vehicle_class": null, "ev_pricing": null, "SEMMCD": 2040, "NAME": "Bloomfield Twp", "COUNTY": 125 }, "geometry": { "type": "Point", "coordinates": [ -83.306195, 42.613379 ] } },
{ "type": "Feature", "properties": { "station_name": "Ann Arbor Nissan", "updated_at": "2021-03-11T23:22:17", "facility_type": "CAR_DEALER", "geocode_status": "GPS", "city": "Ann Arbor", "intersection_directions": null, "plus4": null, "street_address": "3975 Jackson Rd", "zip": "48103", "cng_total_storage": null, "cng_vehicle_class": null, "ev_pricing": "Free", "SEMMCD": 4100, "NAME": "Scio Twp", "COUNTY": 161 }, "geometry": { "type": "Point", "coordinates": [ -83.80855, 42.284242 ] } },
{ "type": "Feature", "properties": { "station_name": "Ann Arbor Nissan", "updated_at": "2021-03-11T23:22:17", "facility_type": "CAR_DEALER", "geocode_status": "GPS", "city": "Ann Arbor", "intersection_directions": null, "plus4": null, "street_address": "3975 Jackson Rd", "zip": "48103", "cng_total_storage": null, "cng_vehicle_class": null, "ev_pricing": null, "SEMMCD": 4100, "NAME": "Scio Twp", "COUNTY": 161 }, "geometry": { "type": "Point", "coordinates": [ -83.80855, 42.284242 ] } },
{ "type": "Feature", "properties": { "station_name": "BMW ANN ARBOR STATION 01", "updated_at": "2021-04-02T00:24:04", "facility_type": null, "geocode_status": "GPS", "city": "Ann Arbor", "intersection_directions": null, "plus4": null, "street_address": "501 Auto Mall Dr", "zip": "48103", "cng_total_storage": null, "cng_vehicle_class": null, "ev_pricing": null, "SEMMCD": 4100, "NAME": "Scio Twp", "COUNTY": 161 }, "geometry": { "type": "Point", "coordinates": [ -83.811745, 42.285775 ] } },
{ "type": "Feature", "properties": { "station_name": "MEADOWLARK BLDG STATION 2", "updated_at": "2021-04-02T00:24:04", "facility_type": null, "geocode_status": "GPS", "city": "Ann Arbor", "intersection_directions": null, "plus4": null, "street_address": "3250 W Liberty Rd", "zip": "48103", "cng_total_storage": null, "cng_vehicle_class": null, "ev_pricing": null, "SEMMCD": 4100, "NAME": "Scio Twp", "COUNTY": 161 }, "geometry": { "type": "Point", "coordinates": [ -83.794254, 42.274082 ] } },
{ "type": "Feature", "properties": { "station_name": "173 - Ann Arbor", "updated_at": "2021-04-02T01:13:34", "facility_type": null, "geocode_status": "200-9", "city": "Ann Arbor", "intersection_directions": null, "plus4": null, "street_address": "5645 Jackson Road", "zip": "48103", "cng_total_storage": null, "cng_vehicle_class": null, "ev_pricing": null, "SEMMCD": 4100, "NAME": "Scio Twp", "COUNTY": 161 }, "geometry": { "type": "Point", "coordinates": [ -83.842995, 42.286346 ] } },
{ "type": "Feature", "properties": { "station_name": "MEADOWLARK BLDG STATION 1", "updated_at": "2021-04-02T00:24:04", "facility_type": null, "geocode_status": "GPS", "city": "Ann Arbor", "intersection_directions": null, "plus4": null, "street_address": "3250 W Liberty Rd", "zip": "48103", "cng_total_storage": null, "cng_vehicle_class": null, "ev_pricing": null, "SEMMCD": 4100, "NAME": "Scio Twp", "COUNTY": 161 }, "geometry": { "type": "Point", "coordinates": [ -83.794254, 42.274074 ] } },
{ "type": "Feature", "properties": { "station_name": "IMRA America", "updated_at": "2021-03-11T23:22:17", "facility_type": "OFFICE_BLDG", "geocode_status": "200-9", "city": "Ann Arbor", "intersection_directions": null, "plus4": null, "street_address": "1044 Woodridge Ave", "zip": "48105", "cng_total_storage": null, "cng_vehicle_class": null, "ev_pricing": null, "SEMMCD": 4010, "NAME": "Ann Arbor Twp", "COUNTY": 161 }, "geometry": { "type": "Point", "coordinates": [ -83.67309, 42.289937 ] } },
{ "type": "Feature", "properties": { "station_name": "DOMINO'S FARMS DOMINO'S FARMS2", "updated_at": "2021-04-02T00:24:04", "facility_type": null, "geocode_status": "GPS", "city": "Ann Arbor", "intersection_directions": null, "plus4": null, "street_address": "24 Frank Lloyd Wright Dr", "zip": "48105", "cng_total_storage": null, "cng_vehicle_class": null, "ev_pricing": null, "SEMMCD": 4010, "NAME": "Ann Arbor Twp", "COUNTY": 161 }, "geometry": { "type": "Point", "coordinates": [ -83.682131, 42.316357 ] } },
{ "type": "Feature", "properties": { "station_name": "DOMINO'S FARMS DOMINO'S FARMS", "updated_at": "2021-04-02T00:24:04", "facility_type": null, "geocode_status": "GPS", "city": "Ann Arbor", "intersection_directions": null, "plus4": null, "street_address": "24 Frank Lloyd Wright Dr", "zip": "48105", "cng_total_storage": null, "cng_vehicle_class": null, "ev_pricing": null, "SEMMCD": 4010, "NAME": "Ann Arbor Twp", "COUNTY": 161 }, "geometry": { "type": "Point", "coordinates": [ -83.683413, 42.316472 ] } },
{ "type": "Feature", "properties": { "station_name": "WASHCOMMCOLLEGE PARKING #6", "updated_at": "2021-04-02T00:24:04", "facility_type": null, "geocode_status": "GPS", "city": "Ann Arbor", "intersection_directions": null, "plus4": null, "street_address": "4800 East Huron River Drive Campus Parking St", "zip": "48105", "cng_total_storage": null, "cng_vehicle_class": null, "ev_pricing": null, "SEMMCD": 4010, "NAME": "Ann Arbor Twp", "COUNTY": 161 }, "geometry": { "type": "Point", "coordinates": [ -83.664661, 42.262248 ] } },
{ "type": "Feature", "properties": { "station_name": "WASHCOMMCOLLEGE PARKING #2", "updated_at": "2021-04-02T00:24:04", "facility_type": null, "geocode_status": "GPS", "city": "Ann Arbor", "intersection_directions": null, "plus4": null, "street_address": "4800 East Huron River Dr Campus Parking Struc", "zip": "48105", "cng_total_storage": null, "cng_vehicle_class": null, "ev_pricing": null, "SEMMCD": 4010, "NAME": "Ann Arbor Twp", "COUNTY": 161 }, "geometry": { "type": "Point", "coordinates": [ -83.664704, 42.262276 ] } },
{ "type": "Feature", "properties": { "station_name": "WASHCOMMCOLLEGE PARKING #1", "updated_at": "2021-04-02T00:24:04", "facility_type": null, "geocode_status": "GPS", "city": "Ann Arbor", "intersection_directions": null, "plus4": null, "street_address": "4800 East Huron River Dr Campus Parking Struc", "zip": "48105", "cng_total_storage": null, "cng_vehicle_class": null, "ev_pricing": null, "SEMMCD": 4010, "NAME": "Ann Arbor Twp", "COUNTY": 161 }, "geometry": { "type": "Point", "coordinates": [ -83.664981, 42.262395 ] } },
{ "type": "Feature", "properties": { "station_name": "WASHCOMMCOLLEGE PARKING 4", "updated_at": "2021-04-02T00:24:04", "facility_type": null, "geocode_status": "GPS", "city": "Ann Arbor", "intersection_directions": null, "plus4": null, "street_address": "4800 E Huron River Dr", "zip": "48105", "cng_total_storage": null, "cng_vehicle_class": null, "ev_pricing": null, "SEMMCD": 4010, "NAME": "Ann Arbor Twp", "COUNTY": 161 }, "geometry": { "type": "Point", "coordinates": [ -83.664258, 42.26281 ] } },
{ "type": "Feature", "properties": { "station_name": "WASHCOMMCOLLEGE PARKING 3", "updated_at": "2021-04-02T00:24:04", "facility_type": null, "geocode_status": "GPS", "city": "Ypsilanti", "intersection_directions": null, "plus4": null, "street_address": "Parking Structure", "zip": "48197", "cng_total_storage": null, "cng_vehicle_class": null, "ev_pricing": null, "SEMMCD": 4010, "NAME": "Ann Arbor Twp", "COUNTY": 161 }, "geometry": { "type": "Point", "coordinates": [ -83.664913, 42.262318 ] } },
{ "type": "Feature", "properties": { "station_name": "WASHCOMMCOLLEGE PARKING 5", "updated_at": "2021-04-02T00:24:04", "facility_type": null, "geocode_status": "GPS", "city": "Ann Arbor", "intersection_directions": null, "plus4": null, "street_address": "4800 E Huron River Dr", "zip": "48105", "cng_total_storage": null, "cng_vehicle_class": null, "ev_pricing": null, "SEMMCD": 4010, "NAME": "Ann Arbor Twp", "COUNTY": 161 }, "geometry": { "type": "Point", "coordinates": [ -83.665546, 42.262458 ] } },
{ "type": "Feature", "properties": { "station_name": "DTE Energy - Mount Clemens Service Center", "updated_at": "2021-03-11T23:22:17", "facility_type": "UTILITY", "geocode_status": "GPS", "city": "Clinton Township", "intersection_directions": "Northwest of intersection of Elizabeth Road & Madison Avenue, northwest of railroad tracks, by the building's eastern front entrance.", "plus4": null, "street_address": "43230 Elizabeth Rd", "zip": "48036", "cng_total_storage": null, "cng_vehicle_class": null, "ev_pricing": null, "SEMMCD": 3030, "NAME": "Clinton Twp", "COUNTY": 99 }, "geometry": { "type": "Point", "coordinates": [ -82.88299, 42.613655 ] } },
{ "type": "Feature", "properties": { "station_name": "Mall at Partridge Creek", "updated_at": "2021-03-11T23:22:17", "facility_type": "SHOPPING_MALL", "geocode_status": "200-8", "city": "Clinton Township", "intersection_directions": "Located in front of Brio", "plus4": null, "street_address": "17420 Hall Rd", "zip": "48038", "cng_total_storage": null, "cng_vehicle_class": null, "ev_pricing": "Free", "SEMMCD": 3030, "NAME": "Clinton Twp", "COUNTY": 99 }, "geometry": { "type": "Point", "coordinates": [ -82.94761, 42.627653 ] } },
{ "type": "Feature", "properties": { "station_name": "DTE Energy - Macomb Service Center", "updated_at": "2021-03-11T23:22:17", "facility_type": "UTILITY", "geocode_status": "GPS", "city": "Clinton Township", "intersection_directions": "East of intersection of Hayes Road and 19 Mile Road, on south side of 19 Mile Road; southernmost parking space along western face of building.", "plus4": null, "street_address": "15600 19 Mile Rd", "zip": "48038", "cng_total_storage": null, "cng_vehicle_class": null, "ev_pricing": "Free", "SEMMCD": 3030, "NAME": "Clinton Twp", "COUNTY": 99 }, "geometry": { "type": "Point", "coordinates": [ -82.96678, 42.611598 ] } },
{ "type": "Feature", "properties": { "station_name": "CONSUMERSENERGY MAC #1", "updated_at": "2021-04-02T00:24:04", "facility_type": null, "geocode_status": "GPS", "city": "Clinton Township", "intersection_directions": null, "plus4": null, "street_address": "35350 Kelly Rd", "zip": "48035", "cng_total_storage": null, "cng_vehicle_class": null, "ev_pricing": null, "SEMMCD": 3030, "NAME": "Clinton Twp", "COUNTY": 99 }, "geometry": { "type": "Point", "coordinates": [ -82.929474, 42.55626 ] } },
{ "type": "Feature", "properties": { "station_name": "WOLVERINEHARLEY DCFAST HOG", "updated_at": "2021-04-02T00:24:04", "facility_type": null, "geocode_status": "GPS", "city": "Clinton Township", "intersection_directions": null, "plus4": null, "street_address": "44660 N Gratiot Ave", "zip": "48036", "cng_total_storage": null, "cng_vehicle_class": null, "ev_pricing": null, "SEMMCD": 3030, "NAME": "Clinton Twp", "COUNTY": 99 }, "geometry": { "type": "Point", "coordinates": [ -82.862305, 42.62599 ] } },
{ "type": "Feature", "properties": { "station_name": "MT CLEMENS DDA MAIN ST PARK #1", "updated_at": "2021-04-02T00:24:04", "facility_type": null, "geocode_status": "GPS", "city": "Mt Clemens", "intersection_directions": null, "plus4": null, "street_address": "39 N Main St", "zip": "48043", "cng_total_storage": null, "cng_vehicle_class": null, "ev_pricing": null, "SEMMCD": 3070, "NAME": "Mount Clemens", "COUNTY": 99 }, "geometry": { "type": "Point", "coordinates": [ -82.877464, 42.59811 ] } },
{ "type": "Feature", "properties": { "station_name": "MT CLEMENS DDA EMERALD      #1", "updated_at": "2021-04-02T00:24:04", "facility_type": null, "geocode_status": "GPS", "city": "Mt Clemens", "intersection_directions": null, "plus4": null, "street_address": "27 N. walnut", "zip": "48043", "cng_total_storage": null, "cng_vehicle_class": null, "ev_pricing": null, "SEMMCD": 3070, "NAME": "Mount Clemens", "COUNTY": 99 }, "geometry": { "type": "Point", "coordinates": [ -82.879341, 42.598186 ] } },
{ "type": "Feature", "properties": { "station_name": "Cranbrook Institute of Science - Parking Deck", "updated_at": "2021-03-11T23:22:17", "facility_type": "MUSEUM", "geocode_status": "GPS", "city": "Bloomfield Hills", "intersection_directions": "Northeast corner of top level of parking deck, off Institute Way", "plus4": null, "street_address": "39221 Woodward Ave", "zip": "48303", "cng_total_storage": null, "cng_vehicle_class": null, "ev_pricing": "Free", "SEMMCD": 2035, "NAME": "Bloomfield Hills", "COUNTY": 125 }, "geometry": { "type": "Point", "coordinates": [ -83.25019, 42.5718165 ] } },
{ "type": "Feature", "properties": { "station_name": "McNaughton McKay Electric Co", "updated_at": "2021-03-11T23:22:17", "facility_type": "UTILITY", "geocode_status": "GPS", "city": "Madison Heights", "intersection_directions": "East side of building near customer Will Call entrance", "plus4": null, "street_address": "1357 E Lincoln Ave", "zip": "48071", "cng_total_storage": null, "cng_vehicle_class": null, "ev_pricing": "Free", "SEMMCD": 2150, "NAME": "Madison Heights", "COUNTY": 125 }, "geometry": { "type": "Point", "coordinates": [ -83.09264, 42.484615 ] } },
{ "type": "Feature", "properties": { "station_name": "ICS", "updated_at": "2021-04-02T00:16:07", "facility_type": null, "geocode_status": "GPS", "city": "Madison Heights", "intersection_directions": null, "plus4": null, "street_address": "31601 Research Park Dr", "zip": "48071", "cng_total_storage": null, "cng_vehicle_class": null, "ev_pricing": "FREE", "SEMMCD": 2150, "NAME": "Madison Heights", "COUNTY": 125 }, "geometry": { "type": "Point", "coordinates": [ -83.100804, 42.524129 ] } },
{ "type": "Feature", "properties": { "station_name": "ARCH DENTAL STATION 1", "updated_at": "2021-04-02T00:24:04", "facility_type": null, "geocode_status": "GPS", "city": "Madison Heights", "intersection_directions": null, "plus4": null, "street_address": "451 W Lincoln Ave", "zip": "48071", "cng_total_storage": null, "cng_vehicle_class": null, "ev_pricing": null, "SEMMCD": 2150, "NAME": "Madison Heights", "COUNTY": 125 }, "geometry": { "type": "Point", "coordinates": [ -83.109388, 42.483004 ] } },
{ "type": "Feature", "properties": { "station_name": "Lawrence Technological University", "updated_at": "2021-03-11T23:22:17", "facility_type": "COLLEGE_CAMPUS", "geocode_status": "GPS", "city": "Southfield", "intersection_directions": "Along southern edge of parking lot C east of North Housing, between the two parking spaces immediately east of the handicap parking spaces that face the Buell Management Building", "plus4": null, "street_address": "21000 W 10 Mile Rd", "zip": "48075", "cng_total_storage": null, "cng_vehicle_class": null, "ev_pricing": "Free", "SEMMCD": 2250, "NAME": "Southfield", "COUNTY": 125 }, "geometry": { "type": "Point", "coordinates": [ -83.24981, 42.476386 ] } },
{ "type": "Feature", "properties": { "station_name": "Tamaroff Nissan", "updated_at": "2021-03-11T23:22:17", "facility_type": "CAR_DEALER", "geocode_status": "200-9", "city": "Southfield", "intersection_directions": null, "plus4": null, "street_address": "28585 Telegraph Rd", "zip": "48034", "cng_total_storage": null, "cng_vehicle_class": null, "ev_pricing": "Free", "SEMMCD": 2250, "NAME": "Southfield", "COUNTY": 125 }, "geometry": { "type": "Point", "coordinates": [ -83.286209, 42.497905 ] } },
{ "type": "Feature", "properties": { "station_name": "Tamaroff Nissan", "updated_at": "2021-03-11T23:22:17", "facility_type": "CAR_DEALER", "geocode_status": "200-9", "city": "Southfield", "intersection_directions": null, "plus4": null, "street_address": "28585 Telegraph Rd", "zip": "48034", "cng_total_storage": null, "cng_vehicle_class": null, "ev_pricing": null, "SEMMCD": 2250, "NAME": "Southfield", "COUNTY": 125 }, "geometry": { "type": "Point", "coordinates": [ -83.286209, 42.497905 ] } },
{ "type": "Feature", "properties": { "station_name": "Avis Ford", "updated_at": "2021-03-11T23:22:17", "facility_type": "CAR_DEALER", "geocode_status": "200-9", "city": "Southfield", "intersection_directions": null, "plus4": null, "street_address": "29200 Telegraph Rd", "zip": "48034", "cng_total_storage": null, "cng_vehicle_class": null, "ev_pricing": "Free", "SEMMCD": 2250, "NAME": "Southfield", "COUNTY": 125 }, "geometry": { "type": "Point", "coordinates": [ -83.28388, 42.502907 ] } },
{ "type": "Feature", "properties": { "station_name": "Blue Care Network of Michigan", "updated_at": "2021-03-11T23:22:17", "facility_type": "OFFICE_BLDG", "geocode_status": "200-9", "city": "Southfield", "intersection_directions": null, "plus4": null, "street_address": "20500 Civic Center Dr", "zip": "48076", "cng_total_storage": null, "cng_vehicle_class": null, "ev_pricing": null, "SEMMCD": 2250, "NAME": "Southfield", "COUNTY": 125 }, "geometry": { "type": "Point", "coordinates": [ -83.247437, 42.480942 ] } },
{ "type": "Feature", "properties": { "station_name": "Allied Ventures", "updated_at": "2021-03-11T23:22:17", "facility_type": "OFFICE_BLDG", "geocode_status": "200-8", "city": "Southfield", "intersection_directions": null, "plus4": null, "street_address": "26000 Northwestern Hwy", "zip": "48076", "cng_total_storage": null, "cng_vehicle_class": null, "ev_pricing": null, "SEMMCD": 2250, "NAME": "Southfield", "COUNTY": 125 }, "geometry": { "type": "Point", "coordinates": [ -83.255057, 42.481789 ] } },
{ "type": "Feature", "properties": { "station_name": "Tony Serra Highland Nissan", "updated_at": "2021-03-11T23:22:17", "facility_type": "CAR_DEALER", "geocode_status": "200-9", "city": "Highland", "intersection_directions": null, "plus4": null, "street_address": "2530 E Highland Rd", "zip": "48356", "cng_total_storage": null, "cng_vehicle_class": null, "ev_pricing": null, "SEMMCD": 2095, "NAME": "Highland Twp", "COUNTY": 125 }, "geometry": { "type": "Point", "coordinates": [ -83.57998, 42.653294 ] } },
{ "type": "Feature", "properties": { "station_name": "Jeffrey Automotive Group", "updated_at": "2021-03-11T23:22:17", "facility_type": "CAR_DEALER", "geocode_status": "200-9", "city": "Roseville", "intersection_directions": null, "plus4": null, "street_address": "30800 Gratiot Ave", "zip": "48066", "cng_total_storage": null, "cng_vehicle_class": null, "ev_pricing": "Free", "SEMMCD": 3105, "NAME": "Roseville", "COUNTY": 99 }, "geometry": { "type": "Point", "coordinates": [ -82.917703, 42.523619 ] } },
{ "type": "Feature", "properties": { "station_name": "Jeffrey Automotive Group", "updated_at": "2021-03-11T23:22:17", "facility_type": "CAR_DEALER", "geocode_status": "200-9", "city": "Roseville", "intersection_directions": null, "plus4": null, "street_address": "30800 Gratiot Ave", "zip": "48066", "cng_total_storage": null, "cng_vehicle_class": null, "ev_pricing": null, "SEMMCD": 3105, "NAME": "Roseville", "COUNTY": 99 }, "geometry": { "type": "Point", "coordinates": [ -82.917703, 42.523619 ] } },
{ "type": "Feature", "properties": { "station_name": "Meijer - Tesla Supercharger", "updated_at": "2021-03-11T23:22:17", "facility_type": null, "geocode_status": "200-9", "city": "Roseville", "intersection_directions": null, "plus4": null, "street_address": "30800 Little Mack Avenue", "zip": "48066", "cng_total_storage": null, "cng_vehicle_class": null, "ev_pricing": "$0.28 per kWh; $0.26 per minute above 60 kW and $0.13 per minute at or below 60 kW", "SEMMCD": 3105, "NAME": "Roseville", "COUNTY": 99 }, "geometry": { "type": "Point", "coordinates": [ -82.9068, 42.522 ] } },
{ "type": "Feature", "properties": { "station_name": "Meijer Roseville (Roseville, MI)", "updated_at": "2021-04-02T01:15:58", "facility_type": null, "geocode_status": "GPS", "city": "Roseville", "intersection_directions": null, "plus4": null, "street_address": "30800 LITTLE MACK AVE", "zip": "48066", "cng_total_storage": null, "cng_vehicle_class": null, "ev_pricing": null, "SEMMCD": 3105, "NAME": "Roseville", "COUNTY": 99 }, "geometry": { "type": "Point", "coordinates": [ -82.906684, 42.522197 ] } },
{ "type": "Feature", "properties": { "station_name": "CHELSEA HOSP CHELSEA HOSP 1", "updated_at": "2021-04-02T00:24:04", "facility_type": null, "geocode_status": "GPS", "city": "Chelsea", "intersection_directions": null, "plus4": null, "street_address": "757-877 M-52", "zip": "48118", "cng_total_storage": null, "cng_vehicle_class": null, "ev_pricing": null, "SEMMCD": 4025, "NAME": "Chelsea", "COUNTY": 161 }, "geometry": { "type": "Point", "coordinates": [ -84.018372, 42.309905 ] } },
{ "type": "Feature", "properties": { "station_name": "Szott Ford", "updated_at": "2021-03-11T23:22:17", "facility_type": "CAR_DEALER", "geocode_status": "200-9", "city": "Holly", "intersection_directions": "Located at I-75 Exit 98", "plus4": null, "street_address": "8800 E Holly Rd", "zip": "48442", "cng_total_storage": null, "cng_vehicle_class": null, "ev_pricing": "Free", "SEMMCD": 2260, "NAME": "Springfield Twp", "COUNTY": 125 }, "geometry": { "type": "Point", "coordinates": [ -83.53068, 42.779727 ] } },
{ "type": "Feature", "properties": { "station_name": "Suburban Ford - Sterling Heights", "updated_at": "2021-03-11T23:22:17", "facility_type": "CAR_DEALER", "geocode_status": "200-9", "city": "Sterling Heights", "intersection_directions": null, "plus4": null, "street_address": "40333 Van Dyke Ave", "zip": "48313", "cng_total_storage": null, "cng_vehicle_class": null, "ev_pricing": "Free", "SEMMCD": 3115, "NAME": "Sterling Heights", "COUNTY": 99 }, "geometry": { "type": "Point", "coordinates": [ -83.0319, 42.589877 ] } },
{ "type": "Feature", "properties": { "station_name": "STERLING HEIGHTS", "updated_at": "2021-03-04T18:40:37", "facility_type": "FED_GOV", "geocode_status": "GPS", "city": "Sterling Heights", "intersection_directions": null, "plus4": null, "street_address": "7007 16 Mile Rd", "zip": "48312", "cng_total_storage": null, "cng_vehicle_class": null, "ev_pricing": null, "SEMMCD": 3115, "NAME": "Sterling Heights", "COUNTY": 99 }, "geometry": { "type": "Point", "coordinates": [ -83.038474, 42.566225 ] } },
{ "type": "Feature", "properties": { "station_name": "Suburban Ford - Waterford", "updated_at": "2021-03-11T23:22:17", "facility_type": "CAR_DEALER", "geocode_status": "200-9", "city": "Waterford", "intersection_directions": "Located by the service entrance", "plus4": null, "street_address": "6975 Highland Rd", "zip": "48327", "cng_total_storage": null, "cng_vehicle_class": null, "ev_pricing": "Free", "SEMMCD": 2280, "NAME": "Waterford Twp", "COUNTY": 125 }, "geometry": { "type": "Point", "coordinates": [ -83.424174, 42.657461 ] } },
{ "type": "Feature", "properties": { "station_name": "Waterford Township - Department of Public Works", "updated_at": "2021-03-11T23:22:17", "facility_type": "MUNI_GOV", "geocode_status": "GPS", "city": "Waterford", "intersection_directions": null, "plus4": null, "street_address": "5240 Civic Center Dr", "zip": "48329", "cng_total_storage": null, "cng_vehicle_class": null, "ev_pricing": "Free", "SEMMCD": 2280, "NAME": "Waterford Twp", "COUNTY": 125 }, "geometry": { "type": "Point", "coordinates": [ -83.391165, 42.669627 ] } },
{ "type": "Feature", "properties": { "station_name": "Nissan Technical Center", "updated_at": "2021-03-11T23:22:17", "facility_type": "RESEARCH_FACILITY", "geocode_status": "GPS", "city": "Farmington Hills", "intersection_directions": "Located in front of the Nissan building", "plus4": null, "street_address": "39001 Sunrise Dr", "zip": "48331", "cng_total_storage": null, "cng_vehicle_class": null, "ev_pricing": "Free", "SEMMCD": 2072, "NAME": "Farmington Hills", "COUNTY": 125 }, "geometry": { "type": "Point", "coordinates": [ -83.427189, 42.493902 ] } },
{ "type": "Feature", "properties": { "station_name": "BMW FARMINGTON STATION 01", "updated_at": "2021-04-02T00:24:04", "facility_type": null, "geocode_status": "GPS", "city": "Farmington Hills", "intersection_directions": null, "plus4": null, "street_address": "38700 Grand River", "zip": "48335", "cng_total_storage": null, "cng_vehicle_class": null, "ev_pricing": null, "SEMMCD": 2072, "NAME": "Farmington Hills", "COUNTY": 125 }, "geometry": { "type": "Point", "coordinates": [ -83.425989, 42.470329 ] } },
{ "type": "Feature", "properties": { "station_name": "MCHD EV DCFAST HOG", "updated_at": "2021-04-02T00:24:04", "facility_type": null, "geocode_status": "GPS", "city": "Farmington Hills", "intersection_directions": null, "plus4": null, "street_address": "24800 Haggerty Rd", "zip": "48335", "cng_total_storage": null, "cng_vehicle_class": null, "ev_pricing": null, "SEMMCD": 2072, "NAME": "Farmington Hills", "COUNTY": 125 }, "geometry": { "type": "Point", "coordinates": [ -83.434235, 42.474014 ] } },
{ "type": "Feature", "properties": { "station_name": "Krishna Catering Restaurant", "updated_at": "2021-04-02T01:13:34", "facility_type": null, "geocode_status": "200-9", "city": "Farmington Hills", "intersection_directions": null, "plus4": null, "street_address": "29206 Orchard Lake Rd", "zip": "48334", "cng_total_storage": null, "cng_vehicle_class": null, "ev_pricing": null, "SEMMCD": 2072, "NAME": "Farmington Hills", "COUNTY": 125 }, "geometry": { "type": "Point", "coordinates": [ -83.358444, 42.511068 ] } },
{ "type": "Feature", "properties": { "station_name": "Tom Holzer Ford", "updated_at": "2021-03-15T13:14:11", "facility_type": "CAR_DEALER", "geocode_status": "GPS", "city": "Farmington Hills", "intersection_directions": null, "plus4": null, "street_address": "39300 W 10 Mile Rd", "zip": "48335", "cng_total_storage": null, "cng_vehicle_class": null, "ev_pricing": null, "SEMMCD": 2072, "NAME": "Farmington Hills", "COUNTY": 125 }, "geometry": { "type": "Point", "coordinates": [ -83.433646, 42.46901 ] } },
{ "type": "Feature", "properties": { "station_name": "Suburban Nissan of Farmington Hills", "updated_at": "2021-03-15T13:14:11", "facility_type": "CAR_DEALER", "geocode_status": "GPS", "city": "Farmington", "intersection_directions": null, "plus4": null, "street_address": "37901 Grand River Ave", "zip": "48335", "cng_total_storage": null, "cng_vehicle_class": null, "ev_pricing": null, "SEMMCD": 2072, "NAME": "Farmington Hills", "COUNTY": 125 }, "geometry": { "type": "Point", "coordinates": [ -83.419087, 42.467715 ] } },
{ "type": "Feature", "properties": { "station_name": "Residence Inn by Marriott Detroit Farmington Hills", "updated_at": "2021-03-15T13:14:11", "facility_type": "HOTEL", "geocode_status": "GPS", "city": "Farmington Hills", "intersection_directions": null, "plus4": null, "street_address": "33163 Hamilton Ct", "zip": "48334", "cng_total_storage": null, "cng_vehicle_class": null, "ev_pricing": null, "SEMMCD": 2072, "NAME": "Farmington Hills", "COUNTY": 125 }, "geometry": { "type": "Point", "coordinates": [ -83.376223, 42.496216 ] } },
{ "type": "Feature", "properties": { "station_name": "Courtyard by Marriott - Detroit Farmington Hills", "updated_at": "2021-03-15T13:14:11", "facility_type": "HOTEL", "geocode_status": "GPS", "city": "Farmington Hills", "intersection_directions": null, "plus4": null, "street_address": "33043 Hamilton Ct", "zip": "48334", "cng_total_storage": null, "cng_vehicle_class": null, "ev_pricing": null, "SEMMCD": 2072, "NAME": "Farmington Hills", "COUNTY": 125 }, "geometry": { "type": "Point", "coordinates": [ -83.373856, 42.49602 ] } },
{ "type": "Feature", "properties": { "station_name": "CONSUMERSENERGY GRO #1 - EAST", "updated_at": "2021-04-02T00:24:04", "facility_type": null, "geocode_status": "GPS", "city": "Holly", "intersection_directions": null, "plus4": null, "street_address": "13806-13998 Dixie Hwy", "zip": "48442", "cng_total_storage": null, "cng_vehicle_class": null, "ev_pricing": null, "SEMMCD": 2085, "NAME": "Groveland Twp", "COUNTY": 125 }, "geometry": { "type": "Point", "coordinates": [ -83.558035, 42.822244 ] } },
{ "type": "Feature", "properties": { "station_name": "WEST BLOOMFIELD STATION 01", "updated_at": "2021-04-02T00:24:04", "facility_type": null, "geocode_status": "GPS", "city": "West Bloomfield Charter Township", "intersection_directions": null, "plus4": null, "street_address": "Civic Center Dr", "zip": "48323", "cng_total_storage": null, "cng_vehicle_class": null, "ev_pricing": null, "SEMMCD": 2285, "NAME": "West Bloomfield Twp", "COUNTY": 125 }, "geometry": { "type": "Point", "coordinates": [ -83.374238, 42.560448 ] } },
{ "type": "Feature", "properties": { "station_name": "Hampton Inn West Bloomfield\/ Southfield - Tesla Destination", "updated_at": "2021-03-11T23:22:17", "facility_type": null, "geocode_status": "200-9", "city": "West Bloomfield Township", "intersection_directions": null, "plus4": null, "street_address": "33096 Northwestern Hwy", "zip": "48322", "cng_total_storage": null, "cng_vehicle_class": null, "ev_pricing": "Free", "SEMMCD": 2285, "NAME": "West Bloomfield Twp", "COUNTY": 125 }, "geometry": { "type": "Point", "coordinates": [ -83.358733, 42.530132 ] } },
{ "type": "Feature", "properties": { "station_name": "Henry Ford West Bloomfield Hospital", "updated_at": "2021-03-15T13:14:11", "facility_type": "HOSPITAL", "geocode_status": "GPS", "city": "West Bloomfield Township", "intersection_directions": null, "plus4": null, "street_address": "6777 W Maple Rd", "zip": "48322", "cng_total_storage": null, "cng_vehicle_class": null, "ev_pricing": null, "SEMMCD": 2285, "NAME": "West Bloomfield Twp", "COUNTY": 125 }, "geometry": { "type": "Point", "coordinates": [ -83.407406, 42.539336 ] } },
{ "type": "Feature", "properties": { "station_name": "Crest Ford", "updated_at": "2021-03-11T23:22:17", "facility_type": "CAR_DEALER", "geocode_status": "200-9", "city": "Flat Rock", "intersection_directions": null, "plus4": null, "street_address": "22675 Gibraltar Rd", "zip": "48134", "cng_total_storage": null, "cng_vehicle_class": null, "ev_pricing": null, "SEMMCD": 1045, "NAME": "Flat Rock (Wayne)", "COUNTY": 163 }, "geometry": { "type": "Point", "coordinates": [ -83.251925, 42.094055 ] } },
{ "type": "Feature", "properties": { "station_name": "Gorno Ford", "updated_at": "2021-03-04T18:40:37", "facility_type": "CAR_DEALER", "geocode_status": "GPS", "city": "Woodhaven", "intersection_directions": null, "plus4": null, "street_address": "22025 Allen Rd", "zip": "48183", "cng_total_storage": null, "cng_vehicle_class": null, "ev_pricing": null, "SEMMCD": 1215, "NAME": "Woodhaven", "COUNTY": 163 }, "geometry": { "type": "Point", "coordinates": [ -83.225353, 42.1471757 ] } },
{ "type": "Feature", "properties": { "station_name": "Dunkin' Donuts", "updated_at": "2021-03-25T01:01:24", "facility_type": null, "geocode_status": "GPS", "city": "Trenton", "intersection_directions": null, "plus4": null, "street_address": "20050 West Rd", "zip": "48183", "cng_total_storage": null, "cng_vehicle_class": null, "ev_pricing": null, "SEMMCD": 1215, "NAME": "Woodhaven", "COUNTY": 163 }, "geometry": { "type": "Point", "coordinates": [ -83.227309, 42.140812 ] } },
{ "type": "Feature", "properties": { "station_name": "KOHLS 1305WOODHAVEN", "updated_at": "2021-04-02T00:24:04", "facility_type": null, "geocode_status": "GPS", "city": "Woodhaven", "intersection_directions": null, "plus4": null, "street_address": "20840 West Rd", "zip": "48183", "cng_total_storage": null, "cng_vehicle_class": null, "ev_pricing": null, "SEMMCD": 1215, "NAME": "Woodhaven", "COUNTY": 163 }, "geometry": { "type": "Point", "coordinates": [ -83.23354, 42.141071 ] } },
{ "type": "Feature", "properties": { "station_name": "Roy O'Brien Ford", "updated_at": "2021-03-11T23:22:17", "facility_type": "CAR_DEALER", "geocode_status": "200-9", "city": "St. Clair Shores", "intersection_directions": null, "plus4": null, "street_address": "22201 E Nine Mile Rd", "zip": "48080", "cng_total_storage": null, "cng_vehicle_class": null, "ev_pricing": "Free", "SEMMCD": 3120, "NAME": "St. Clair Shores", "COUNTY": 99 }, "geometry": { "type": "Point", "coordinates": [ -82.89845, 42.466796 ] } },
{ "type": "Feature", "properties": { "station_name": "Briarwood Ford", "updated_at": "2021-03-11T23:22:17", "facility_type": "CAR_DEALER", "geocode_status": "200-9", "city": "Saline", "intersection_directions": null, "plus4": null, "street_address": "7070 E Michigan Ave", "zip": "48176", "cng_total_storage": null, "cng_vehicle_class": null, "ev_pricing": "Free", "SEMMCD": 4080, "NAME": "Pittsfield Twp", "COUNTY": 161 }, "geometry": { "type": "Point", "coordinates": [ -83.740207, 42.185792 ] } },
{ "type": "Feature", "properties": { "station_name": "A & D Technology", "updated_at": "2021-03-11T23:22:17", "facility_type": "OFFICE_BLDG", "geocode_status": "200-9", "city": "Ann Arbor", "intersection_directions": null, "plus4": null, "street_address": "4622 Runway Blvd", "zip": "48108", "cng_total_storage": null, "cng_vehicle_class": null, "ev_pricing": "Free", "SEMMCD": 4080, "NAME": "Pittsfield Twp", "COUNTY": 161 }, "geometry": { "type": "Point", "coordinates": [ -83.732229, 42.219323 ] } },
{ "type": "Feature", "properties": { "station_name": "Meijer - Tesla Supercharger", "updated_at": "2021-03-11T23:22:17", "facility_type": null, "geocode_status": "200-8", "city": "Ann Arbor", "intersection_directions": null, "plus4": null, "street_address": "3145 Ann Arbor-Saline Road", "zip": "48103", "cng_total_storage": null, "cng_vehicle_class": null, "ev_pricing": "$0.28 per kWh; $0.26 per minute above 60 kW and $0.13 per minute at or below 60 kW", "SEMMCD": 4080, "NAME": "Pittsfield Twp", "COUNTY": 161 }, "geometry": { "type": "Point", "coordinates": [ -83.7665, 42.2411 ] } },
{ "type": "Feature", "properties": { "station_name": "MEIJER STORES 064 SALINE RD 1", "updated_at": "2021-04-02T00:24:04", "facility_type": null, "geocode_status": "GPS", "city": "Ann Arbor", "intersection_directions": null, "plus4": null, "street_address": "3145 Ann Arbor-Saline Rd", "zip": "48108", "cng_total_storage": null, "cng_vehicle_class": null, "ev_pricing": null, "SEMMCD": 4080, "NAME": "Pittsfield Twp", "COUNTY": 161 }, "geometry": { "type": "Point", "coordinates": [ -83.766013, 42.240552 ] } },
{ "type": "Feature", "properties": { "station_name": "PITTSFIELD TWP WEST", "updated_at": "2021-04-02T00:24:04", "facility_type": null, "geocode_status": "GPS", "city": "Saline", "intersection_directions": null, "plus4": null, "street_address": "6201 US-12", "zip": "48176", "cng_total_storage": null, "cng_vehicle_class": null, "ev_pricing": null, "SEMMCD": 4080, "NAME": "Pittsfield Twp", "COUNTY": 161 }, "geometry": { "type": "Point", "coordinates": [ -83.700732, 42.197611 ] } },
{ "type": "Feature", "properties": { "station_name": "MEIJER STORES 064 SALINE RD 2", "updated_at": "2021-04-02T00:24:04", "facility_type": null, "geocode_status": "GPS", "city": "Ann Arbor", "intersection_directions": null, "plus4": null, "street_address": "3145 Ann Arbor-Saline Rd", "zip": "48108", "cng_total_storage": null, "cng_vehicle_class": null, "ev_pricing": null, "SEMMCD": 4080, "NAME": "Pittsfield Twp", "COUNTY": 161 }, "geometry": { "type": "Point", "coordinates": [ -83.765982, 42.240525 ] } },
{ "type": "Feature", "properties": { "station_name": "PITTSFIELD TWP EAST", "updated_at": "2021-04-02T00:24:04", "facility_type": null, "geocode_status": "GPS", "city": "Saline", "intersection_directions": null, "plus4": null, "street_address": "6201 US-12", "zip": "48176", "cng_total_storage": null, "cng_vehicle_class": null, "ev_pricing": null, "SEMMCD": 4080, "NAME": "Pittsfield Twp", "COUNTY": 161 }, "geometry": { "type": "Point", "coordinates": [ -83.700681, 42.197633 ] } },
{ "type": "Feature", "properties": { "station_name": "NOAA", "updated_at": "2021-03-04T18:40:37", "facility_type": "FED_GOV", "geocode_status": "GPS", "city": "ANN ARBOR", "intersection_directions": null, "plus4": null, "street_address": "4840 S State Rd", "zip": "48108", "cng_total_storage": null, "cng_vehicle_class": null, "ev_pricing": null, "SEMMCD": 4080, "NAME": "Pittsfield Twp", "COUNTY": 161 }, "geometry": { "type": "Point", "coordinates": [ -83.72917, 42.22341 ] } },
{ "type": "Feature", "properties": { "station_name": "Crest Ford", "updated_at": "2021-03-11T23:22:17", "facility_type": "CAR_DEALER", "geocode_status": "200-9", "city": "Center Line", "intersection_directions": null, "plus4": null, "street_address": "26333 Van Dyke", "zip": "48331", "cng_total_storage": null, "cng_vehicle_class": null, "ev_pricing": null, "SEMMCD": 3020, "NAME": "Center Line", "COUNTY": 99 }, "geometry": { "type": "Point", "coordinates": [ -83.028484, 42.487246 ] } },
{ "type": "Feature", "properties": { "station_name": "HOWELL TANGER EV 1", "updated_at": "2021-04-02T00:24:04", "facility_type": null, "geocode_status": "GPS", "city": "Howell", "intersection_directions": null, "plus4": null, "street_address": "1475 N Burkhart Rd", "zip": "48855", "cng_total_storage": null, "cng_vehicle_class": null, "ev_pricing": null, "SEMMCD": 7065, "NAME": "Howell Twp", "COUNTY": 93 }, "geometry": { "type": "Point", "coordinates": [ -83.997775, 42.622286 ] } },
{ "type": "Feature", "properties": { "station_name": "HOWELL TANGER EV 2", "updated_at": "2021-04-02T00:24:04", "facility_type": null, "geocode_status": "GPS", "city": "Howell", "intersection_directions": null, "plus4": null, "street_address": "1475 N Burkhart Rd", "zip": "48855", "cng_total_storage": null, "cng_vehicle_class": null, "ev_pricing": null, "SEMMCD": 7065, "NAME": "Howell Twp", "COUNTY": 93 }, "geometry": { "type": "Point", "coordinates": [ -83.997719, 42.62231 ] } },
{ "type": "Feature", "properties": { "station_name": "POWER WELLNESS DEXTER WELLNESS", "updated_at": "2021-04-02T00:24:04", "facility_type": null, "geocode_status": "GPS", "city": "Dexter", "intersection_directions": null, "plus4": null, "street_address": "2810 Baker Rd", "zip": "48130", "cng_total_storage": null, "cng_vehicle_class": null, "ev_pricing": null, "SEMMCD": 4030, "NAME": "Dexter", "COUNTY": 161 }, "geometry": { "type": "Point", "coordinates": [ -83.886096, 42.330669 ] } },
{ "type": "Feature", "properties": { "station_name": "Comfort Inn - Metro Airport", "updated_at": "2021-03-11T23:22:17", "facility_type": "HOTEL", "geocode_status": "200-9", "city": "Romulus", "intersection_directions": null, "plus4": null, "street_address": "31800 Wick Rd", "zip": "48174", "cng_total_storage": null, "cng_vehicle_class": null, "ev_pricing": "Free", "SEMMCD": 1170, "NAME": "Romulus", "COUNTY": 163 }, "geometry": { "type": "Point", "coordinates": [ -83.351692, 42.239321 ] } },
{ "type": "Feature", "properties": { "station_name": "DTW AIRPORT BLUEDECK 4G #3", "updated_at": "2021-04-02T00:24:04", "facility_type": null, "geocode_status": "GPS", "city": "Detroit", "intersection_directions": null, "plus4": null, "street_address": "International Dr", "zip": "48242", "cng_total_storage": null, "cng_vehicle_class": null, "ev_pricing": null, "SEMMCD": 1170, "NAME": "Romulus", "COUNTY": 163 }, "geometry": { "type": "Point", "coordinates": [ -83.347041, 42.224805 ] } },
{ "type": "Feature", "properties": { "station_name": "DTW AIRPORT MAC DECK 8B4", "updated_at": "2021-04-02T00:24:04", "facility_type": null, "geocode_status": "GPS", "city": "Romulus", "intersection_directions": null, "plus4": null, "street_address": "McNamara Terminal", "zip": "48174", "cng_total_storage": null, "cng_vehicle_class": null, "ev_pricing": null, "SEMMCD": 1170, "NAME": "Romulus", "COUNTY": 163 }, "geometry": { "type": "Point", "coordinates": [ -83.355813, 42.20747 ] } },
{ "type": "Feature", "properties": { "station_name": "DTW AIRPORT SOUTH CEL LOT", "updated_at": "2021-04-02T00:24:04", "facility_type": null, "geocode_status": "GPS", "city": "Romulus", "intersection_directions": null, "plus4": null, "street_address": "34697 Eureka Rd", "zip": "48174", "cng_total_storage": null, "cng_vehicle_class": null, "ev_pricing": null, "SEMMCD": 1170, "NAME": "Romulus", "COUNTY": 163 }, "geometry": { "type": "Point", "coordinates": [ -83.376683, 42.194207 ] } },
{ "type": "Feature", "properties": { "station_name": "DTW AIRPORT MAC DECK 8B1", "updated_at": "2021-04-02T00:24:04", "facility_type": null, "geocode_status": "GPS", "city": "Romulus", "intersection_directions": null, "plus4": null, "street_address": "1 Detroit Metro Airport", "zip": "48174", "cng_total_storage": null, "cng_vehicle_class": null, "ev_pricing": null, "SEMMCD": 1170, "NAME": "Romulus", "COUNTY": 163 }, "geometry": { "type": "Point", "coordinates": [ -83.355793, 42.207484 ] } },
{ "type": "Feature", "properties": { "station_name": "DTW AIRPORT BLUEDECK 4G #4", "updated_at": "2021-04-02T00:24:04", "facility_type": null, "geocode_status": "GPS", "city": "Detroit", "intersection_directions": null, "plus4": null, "street_address": "International Dr", "zip": "48242", "cng_total_storage": null, "cng_vehicle_class": null, "ev_pricing": null, "SEMMCD": 1170, "NAME": "Romulus", "COUNTY": 163 }, "geometry": { "type": "Point", "coordinates": [ -83.34704, 42.224814 ] } },
{ "type": "Feature", "properties": { "station_name": "DTW AIRPORT BLUEDECK 4G #1", "updated_at": "2021-04-02T00:24:04", "facility_type": null, "geocode_status": "GPS", "city": "Detroit", "intersection_directions": null, "plus4": null, "street_address": "International Dr", "zip": "48242", "cng_total_storage": null, "cng_vehicle_class": null, "ev_pricing": null, "SEMMCD": 1170, "NAME": "Romulus", "COUNTY": 163 }, "geometry": { "type": "Point", "coordinates": [ -83.34703, 42.224834 ] } },
{ "type": "Feature", "properties": { "station_name": "DTW AIRPORT BLUEDECK 4G #2", "updated_at": "2021-04-02T00:24:04", "facility_type": null, "geocode_status": "GPS", "city": "Detroit", "intersection_directions": null, "plus4": null, "street_address": "International Dr", "zip": "48242", "cng_total_storage": null, "cng_vehicle_class": null, "ev_pricing": null, "SEMMCD": 1170, "NAME": "Romulus", "COUNTY": 163 }, "geometry": { "type": "Point", "coordinates": [ -83.347122, 42.224828 ] } },
{ "type": "Feature", "properties": { "station_name": "DTW AIRPORT MAC DECK 8B3", "updated_at": "2021-04-02T00:24:04", "facility_type": null, "geocode_status": "GPS", "city": "Romulus", "intersection_directions": null, "plus4": null, "street_address": "McNamara Terminal", "zip": "48174", "cng_total_storage": null, "cng_vehicle_class": null, "ev_pricing": null, "SEMMCD": 1170, "NAME": "Romulus", "COUNTY": 163 }, "geometry": { "type": "Point", "coordinates": [ -83.355828, 42.207454 ] } },
{ "type": "Feature", "properties": { "station_name": "DTW AIRPORT MAC DECK 8B2", "updated_at": "2021-04-02T00:24:04", "facility_type": null, "geocode_status": "GPS", "city": "Romulus", "intersection_directions": null, "plus4": null, "street_address": "McNamara Terminal", "zip": "48174", "cng_total_storage": null, "cng_vehicle_class": null, "ev_pricing": null, "SEMMCD": 1170, "NAME": "Romulus", "COUNTY": 163 }, "geometry": { "type": "Point", "coordinates": [ -83.35575, 42.20754 ] } },
{ "type": "Feature", "properties": { "station_name": "DTW AIRPORT MCNAMARA VALET", "updated_at": "2021-04-02T00:24:04", "facility_type": null, "geocode_status": "GPS", "city": "Romulus", "intersection_directions": null, "plus4": null, "street_address": "McNamara Terminal", "zip": "48174", "cng_total_storage": null, "cng_vehicle_class": null, "ev_pricing": null, "SEMMCD": 1170, "NAME": "Romulus", "COUNTY": 163 }, "geometry": { "type": "Point", "coordinates": [ -83.356068, 42.206698 ] } },
{ "type": "Feature", "properties": { "station_name": "775 KROGERSOUTHGATE", "updated_at": "2021-04-02T00:24:04", "facility_type": null, "geocode_status": "GPS", "city": "Southgate", "intersection_directions": null, "plus4": null, "street_address": "16705 Fort St", "zip": "48195", "cng_total_storage": null, "cng_vehicle_class": null, "ev_pricing": null, "SEMMCD": 1175, "NAME": "Southgate", "COUNTY": 163 }, "geometry": { "type": "Point", "coordinates": [ -83.185771, 42.185793 ] } },
{ "type": "Feature", "properties": { "station_name": "Dunkin' Donuts", "updated_at": "2021-03-25T01:01:24", "facility_type": null, "geocode_status": "GPS", "city": "Plymouth", "intersection_directions": null, "plus4": null, "street_address": "39600 Ann Arbor Rd E", "zip": "48170", "cng_total_storage": null, "cng_vehicle_class": null, "ev_pricing": null, "SEMMCD": 1145, "NAME": "Plymouth Twp", "COUNTY": 163 }, "geometry": { "type": "Point", "coordinates": [ -83.43257, 42.360011 ] } },
{ "type": "Feature", "properties": { "station_name": "Dunkin Donuts - Dearborn Heights", "updated_at": "2021-03-25T01:01:24", "facility_type": null, "geocode_status": "GPS", "city": "Dearborn Heights", "intersection_directions": null, "plus4": null, "street_address": "4345 S Telegraph Rd", "zip": "48125", "cng_total_storage": null, "cng_vehicle_class": null, "ev_pricing": null, "SEMMCD": 1030, "NAME": "Dearborn Heights", "COUNTY": 163 }, "geometry": { "type": "Point", "coordinates": [ -83.269787, 42.278266 ] } },
{ "type": "Feature", "properties": { "station_name": "USA 2 GO", "updated_at": "2021-03-25T01:01:24", "facility_type": null, "geocode_status": "GPS", "city": "Howell", "intersection_directions": null, "plus4": null, "street_address": "3990 Grand Oaks Dr", "zip": "48843", "cng_total_storage": null, "cng_vehicle_class": null, "ev_pricing": null, "SEMMCD": 7035, "NAME": "Genoa Twp", "COUNTY": 93 }, "geometry": { "type": "Point", "coordinates": [ -83.874973, 42.581568 ] } },
{ "type": "Feature", "properties": { "station_name": "ROCTR1 NEW STATION 4", "updated_at": "2021-04-02T00:24:04", "facility_type": null, "geocode_status": "GPS", "city": "Royal Oak", "intersection_directions": null, "plus4": null, "street_address": "514 S Lafayette Ave", "zip": "48067", "cng_total_storage": null, "cng_vehicle_class": null, "ev_pricing": null, "SEMMCD": 2240, "NAME": "Royal Oak", "COUNTY": 125 }, "geometry": { "type": "Point", "coordinates": [ -83.148386, 42.486013 ] } },
{ "type": "Feature", "properties": { "station_name": "ROCTR1 NEW STATION 3", "updated_at": "2021-04-02T00:24:04", "facility_type": null, "geocode_status": "GPS", "city": "Royal Oak", "intersection_directions": null, "plus4": null, "street_address": "222 N Center St", "zip": "48067", "cng_total_storage": null, "cng_vehicle_class": null, "ev_pricing": null, "SEMMCD": 2240, "NAME": "Royal Oak", "COUNTY": 125 }, "geometry": { "type": "Point", "coordinates": [ -83.146078, 42.488217 ] } },
{ "type": "Feature", "properties": { "station_name": "ROCTR1 NEW STATION 1", "updated_at": "2021-04-02T00:24:04", "facility_type": null, "geocode_status": "GPS", "city": "Royal Oak", "intersection_directions": null, "plus4": null, "street_address": "300 S Center St", "zip": "48067", "cng_total_storage": null, "cng_vehicle_class": null, "ev_pricing": null, "SEMMCD": 2240, "NAME": "Royal Oak", "COUNTY": 125 }, "geometry": { "type": "Point", "coordinates": [ -83.145827, 42.488226 ] } },
{ "type": "Feature", "properties": { "station_name": "CONSUMERSENERGY ROY #1", "updated_at": "2021-04-02T00:24:04", "facility_type": null, "geocode_status": "GPS", "city": "Royal Oak", "intersection_directions": null, "plus4": null, "street_address": "4600 Coolidge Hwy", "zip": "48073", "cng_total_storage": null, "cng_vehicle_class": null, "ev_pricing": null, "SEMMCD": 2240, "NAME": "Royal Oak", "COUNTY": 125 }, "geometry": { "type": "Point", "coordinates": [ -83.183449, 42.529578 ] } },
{ "type": "Feature", "properties": { "station_name": "ROCTR1 NEW STATION 2", "updated_at": "2021-04-02T00:24:04", "facility_type": null, "geocode_status": "GPS", "city": "Royal Oak", "intersection_directions": null, "plus4": null, "street_address": "222 N Center St", "zip": "48067", "cng_total_storage": null, "cng_vehicle_class": null, "ev_pricing": null, "SEMMCD": 2240, "NAME": "Royal Oak", "COUNTY": 125 }, "geometry": { "type": "Point", "coordinates": [ -83.146101, 42.488134 ] } },
{ "type": "Feature", "properties": { "station_name": "The Blue Water Convention Center - Tesla Supercharger", "updated_at": "2021-03-11T23:22:17", "facility_type": null, "geocode_status": "200-8", "city": "Port Huron", "intersection_directions": null, "plus4": null, "street_address": "500 Thomas Edison Parkway", "zip": "48060", "cng_total_storage": null, "cng_vehicle_class": null, "ev_pricing": "$0.28 per kWh; $0.26 per minute above 60 kW and $0.13 per minute at or below 60 kW", "SEMMCD": 6135, "NAME": "Port Huron", "COUNTY": 147 }, "geometry": { "type": "Point", "coordinates": [ -82.4289, 42.9988 ] } },
{ "type": "Feature", "properties": { "station_name": "Feldman Chevrolet - New Hudson", "updated_at": "2021-03-11T23:22:17", "facility_type": "CAR_DEALER", "geocode_status": "GPS", "city": "New Hudson", "intersection_directions": null, "plus4": null, "street_address": "30400 Lyon Center Dr", "zip": "48165", "cng_total_storage": null, "cng_vehicle_class": null, "ev_pricing": "Free", "SEMMCD": 2145, "NAME": "Lyon Twp", "COUNTY": 125 }, "geometry": { "type": "Point", "coordinates": [ -83.608279, 42.515722 ] } },
{ "type": "Feature", "properties": { "station_name": "Ten Mile Kroger", "updated_at": "2021-03-15T13:14:11", "facility_type": "GROCERY", "geocode_status": "GPS", "city": "South Lyon", "intersection_directions": null, "plus4": null, "street_address": "51847 10 Mile Rd", "zip": "48178", "cng_total_storage": null, "cng_vehicle_class": null, "ev_pricing": null, "SEMMCD": 2145, "NAME": "Lyon Twp", "COUNTY": 125 }, "geometry": { "type": "Point", "coordinates": [ -83.562095, 42.462307 ] } },
{ "type": "Feature", "properties": { "station_name": "The Townsend Hotel - Tesla Destination", "updated_at": "2021-03-11T23:22:17", "facility_type": "HOTEL", "geocode_status": "200-9", "city": "Birmingham", "intersection_directions": null, "plus4": null, "street_address": "100 Townsend St", "zip": "48009", "cng_total_storage": null, "cng_vehicle_class": null, "ev_pricing": "Free", "SEMMCD": 2030, "NAME": "Birmingham", "COUNTY": 125 }, "geometry": { "type": "Point", "coordinates": [ -83.215309, 42.544818 ] } },
{ "type": "Feature", "properties": { "station_name": "Hampton Inn Monroe - Tesla Destination", "updated_at": "2021-03-11T23:22:17", "facility_type": "HOTEL", "geocode_status": "200-9", "city": "Monroe", "intersection_directions": null, "plus4": null, "street_address": "1565 N Dixie Hwy", "zip": "48162", "cng_total_storage": null, "cng_vehicle_class": null, "ev_pricing": "Free", "SEMMCD": 5050, "NAME": "Frenchtown Twp", "COUNTY": 115 }, "geometry": { "type": "Point", "coordinates": [ -83.35295, 41.92929 ] } },
{ "type": "Feature", "properties": { "station_name": "Auburn Hills Marriott Pontiac - Tesla Destination", "updated_at": "2021-03-11T23:22:17", "facility_type": "HOTEL", "geocode_status": "200-8", "city": "Pontiac", "intersection_directions": null, "plus4": null, "street_address": "3600 Centerpoint Pkwy", "zip": "48341", "cng_total_storage": null, "cng_vehicle_class": null, "ev_pricing": "Free", "SEMMCD": 2215, "NAME": "Pontiac", "COUNTY": 125 }, "geometry": { "type": "Point", "coordinates": [ -83.251063, 42.606227 ] } },
{ "type": "Feature", "properties": { "station_name": "M1 Concourse - Tesla Destination", "updated_at": "2021-03-11T23:22:17", "facility_type": null, "geocode_status": "GPS", "city": "Pontiac", "intersection_directions": null, "plus4": null, "street_address": "1 Concourse Dr", "zip": "48341", "cng_total_storage": null, "cng_vehicle_class": null, "ev_pricing": "Free", "SEMMCD": 2215, "NAME": "Pontiac", "COUNTY": 125 }, "geometry": { "type": "Point", "coordinates": [ -83.284837, 42.62115 ] } },
{ "type": "Feature", "properties": { "station_name": "Best Western Port Huron - Tesla Destination", "updated_at": "2021-03-11T23:22:17", "facility_type": "HOTEL", "geocode_status": "200-9", "city": "Port Huron", "intersection_directions": null, "plus4": null, "street_address": "2282 Water St", "zip": "48060", "cng_total_storage": null, "cng_vehicle_class": null, "ev_pricing": "Free", "SEMMCD": 6140, "NAME": "Port Huron Twp", "COUNTY": 147 }, "geometry": { "type": "Point", "coordinates": [ -82.453041, 42.993412 ] } },
{ "type": "Feature", "properties": { "station_name": "City of Eastpointe", "updated_at": "2021-03-11T23:22:17", "facility_type": "MUNI_GOV", "geocode_status": "200-9", "city": "Eastpointe", "intersection_directions": "1\/4 mile north of 9 Mile Road\/Gratiot Avenue", "plus4": null, "street_address": "23200 Gratiot Ave", "zip": "48021", "cng_total_storage": null, "cng_vehicle_class": null, "ev_pricing": "Free", "SEMMCD": 3035, "NAME": "Eastpointe", "COUNTY": 99 }, "geometry": { "type": "Point", "coordinates": [ -82.954855, 42.46845 ] } },
{ "type": "Feature", "properties": { "station_name": "Wagner Place - Parking Deck", "updated_at": "2021-03-15T13:14:11", "facility_type": "PARKING_GARAGE", "geocode_status": "GPS", "city": "Dearborn", "intersection_directions": null, "plus4": null, "street_address": "1140 Monroe St", "zip": "48124", "cng_total_storage": null, "cng_vehicle_class": null, "ev_pricing": "Free", "SEMMCD": 1025, "NAME": "Dearborn", "COUNTY": 163 }, "geometry": { "type": "Point", "coordinates": [ -83.244017, 42.305092 ] } },
{ "type": "Feature", "properties": { "station_name": "Dearborn, Michigan - East Parking Deck", "updated_at": "2021-03-15T13:14:11", "facility_type": "PARKING_GARAGE", "geocode_status": "GPS", "city": "Dearborn", "intersection_directions": null, "plus4": null, "street_address": "22201 W Village Dr", "zip": "48124", "cng_total_storage": null, "cng_vehicle_class": null, "ev_pricing": null, "SEMMCD": 1025, "NAME": "Dearborn", "COUNTY": 163 }, "geometry": { "type": "Point", "coordinates": [ -83.247935, 42.304394 ] } },
{ "type": "Feature", "properties": { "station_name": "John D. Dingell Transit Center", "updated_at": "2021-03-15T13:14:11", "facility_type": "TRAVEL_CENTER", "geocode_status": "GPS", "city": "Dearborn", "intersection_directions": null, "plus4": null, "street_address": "21201 Michigan Ave", "zip": "48124", "cng_total_storage": null, "cng_vehicle_class": null, "ev_pricing": null, "SEMMCD": 1025, "NAME": "Dearborn", "COUNTY": 163 }, "geometry": { "type": "Point", "coordinates": [ -83.235207, 42.307593 ] } },
{ "type": "Feature", "properties": { "station_name": "University of Michigan - Dearborn - Monteith Parking Structure", "updated_at": "2021-03-15T13:14:11", "facility_type": "COLLEGE_CAMPUS", "geocode_status": "GPS", "city": "Dearborn", "intersection_directions": null, "plus4": null, "street_address": "4901 Evergreen Rd", "zip": "48128", "cng_total_storage": null, "cng_vehicle_class": null, "ev_pricing": null, "SEMMCD": 1025, "NAME": "Dearborn", "COUNTY": 163 }, "geometry": { "type": "Point", "coordinates": [ -83.236852, 42.320545 ] } },
{ "type": "Feature", "properties": { "station_name": "University of Michigan - Dearborn - Parking Lot A", "updated_at": "2021-03-15T13:14:11", "facility_type": "COLLEGE_CAMPUS", "geocode_status": "GPS", "city": "Dearborn", "intersection_directions": null, "plus4": null, "street_address": "4901 Evergreen Rd", "zip": "48128", "cng_total_storage": null, "cng_vehicle_class": null, "ev_pricing": null, "SEMMCD": 1025, "NAME": "Dearborn", "COUNTY": 163 }, "geometry": { "type": "Point", "coordinates": [ -83.235432, 42.318078 ] } },
{ "type": "Feature", "properties": { "station_name": "Henry Ford Centennial Library", "updated_at": "2021-03-15T13:14:11", "facility_type": "LIBRARY", "geocode_status": "GPS", "city": "Dearborn", "intersection_directions": null, "plus4": null, "street_address": "16301 Michigan Ave", "zip": "48126", "cng_total_storage": null, "cng_vehicle_class": null, "ev_pricing": null, "SEMMCD": 1025, "NAME": "Dearborn", "COUNTY": 163 }, "geometry": { "type": "Point", "coordinates": [ -83.202218, 42.313015 ] } },
{ "type": "Feature", "properties": { "station_name": "MOTOWN HARLEY DCFAST HOG", "updated_at": "2021-04-02T00:24:04", "facility_type": null, "geocode_status": "GPS", "city": "Taylor", "intersection_directions": null, "plus4": null, "street_address": "14100 Telegraph Rd", "zip": "48180", "cng_total_storage": null, "cng_vehicle_class": null, "ev_pricing": null, "SEMMCD": 1185, "NAME": "Taylor", "COUNTY": 163 }, "geometry": { "type": "Point", "coordinates": [ -83.269624, 42.2041 ] } },
{ "type": "Feature", "properties": { "station_name": "Home2 Suites by Hilton - Taylor", "updated_at": "2021-03-11T23:22:17", "facility_type": "HOSPITAL", "geocode_status": "200-8", "city": "Taylor", "intersection_directions": null, "plus4": null, "street_address": "14300 Pardee Rd", "zip": "48180", "cng_total_storage": null, "cng_vehicle_class": null, "ev_pricing": "Free; for guest use only", "SEMMCD": 1185, "NAME": "Taylor", "COUNTY": 163 }, "geometry": { "type": "Point", "coordinates": [ -83.258417, 42.201597 ] } },
{ "type": "Feature", "properties": { "station_name": "Roundtree Place", "updated_at": "2021-04-02T01:15:58", "facility_type": null, "geocode_status": "GPS", "city": "Ypsilanti", "intersection_directions": null, "plus4": null, "street_address": "2539 Ellsworth Rd", "zip": "48197", "cng_total_storage": null, "cng_vehicle_class": null, "ev_pricing": null, "SEMMCD": 4135, "NAME": "Ypsilanti Twp", "COUNTY": 161 }, "geometry": { "type": "Point", "coordinates": [ -83.649258, 42.229517 ] } },
{ "type": "Feature", "properties": { "station_name": "PINE KNOB SKI STATION 02", "updated_at": "2021-04-02T00:24:04", "facility_type": null, "geocode_status": "GPS", "city": "Independence charter Township", "intersection_directions": null, "plus4": null, "street_address": "7778 Sashabaw Rd", "zip": "48348", "cng_total_storage": null, "cng_vehicle_class": null, "ev_pricing": null, "SEMMCD": 2115, "NAME": "Independence Twp", "COUNTY": 125 }, "geometry": { "type": "Point", "coordinates": [ -83.369104, 42.74563 ] } },
{ "type": "Feature", "properties": { "station_name": "DTE Amphitheater", "updated_at": "2021-03-11T23:22:17", "facility_type": "SHOPPING_CENTER", "geocode_status": "GPS", "city": "Clarkston", "intersection_directions": null, "plus4": null, "street_address": "7774 Sashabaw Rd", "zip": "48348", "cng_total_storage": null, "cng_vehicle_class": null, "ev_pricing": "Free", "SEMMCD": 2115, "NAME": "Independence Twp", "COUNTY": 125 }, "geometry": { "type": "Point", "coordinates": [ -83.371579, 42.746705 ] } },
{ "type": "Feature", "properties": { "station_name": "PINE KNOB SKI STATION 01", "updated_at": "2021-04-02T00:24:04", "facility_type": null, "geocode_status": "GPS", "city": "Independence charter Township", "intersection_directions": null, "plus4": null, "street_address": "7778 Sashabaw Rd", "zip": "48348", "cng_total_storage": null, "cng_vehicle_class": null, "ev_pricing": null, "SEMMCD": 2115, "NAME": "Independence Twp", "COUNTY": 125 }, "geometry": { "type": "Point", "coordinates": [ -83.36919, 42.745646 ] } },
{ "type": "Feature", "properties": { "station_name": "Up2Go International - Tesla Destination", "updated_at": "2021-03-11T23:22:17", "facility_type": null, "geocode_status": "200-9", "city": "Northville", "intersection_directions": null, "plus4": null, "street_address": "120 W Main St #205", "zip": "48167", "cng_total_storage": null, "cng_vehicle_class": null, "ev_pricing": "Free", "SEMMCD": 1130, "NAME": "Northville (Wayne)", "COUNTY": 163 }, "geometry": { "type": "Point", "coordinates": [ -83.484414, 42.431246 ] } },
{ "type": "Feature", "properties": { "station_name": "MILFORD VILLAGE STATION 3", "updated_at": "2021-04-02T00:24:04", "facility_type": null, "geocode_status": "GPS", "city": "Milford Charter Township", "intersection_directions": null, "plus4": null, "street_address": "124 E Commerce St", "zip": "48381", "cng_total_storage": null, "cng_vehicle_class": null, "ev_pricing": null, "SEMMCD": 2155, "NAME": "Milford", "COUNTY": 125 }, "geometry": { "type": "Point", "coordinates": [ -83.599518, 42.59149 ] } },
{ "type": "Feature", "properties": { "station_name": "MILFORD VILLAGE STATION 2", "updated_at": "2021-04-02T00:24:04", "facility_type": null, "geocode_status": "GPS", "city": "Milford Charter Township", "intersection_directions": null, "plus4": null, "street_address": "124 E Commerce St", "zip": "48381", "cng_total_storage": null, "cng_vehicle_class": null, "ev_pricing": null, "SEMMCD": 2155, "NAME": "Milford", "COUNTY": 125 }, "geometry": { "type": "Point", "coordinates": [ -83.599513, 42.591519 ] } },
{ "type": "Feature", "properties": { "station_name": "MILFORD VILLAGE STATION 1", "updated_at": "2021-04-02T00:24:04", "facility_type": null, "geocode_status": "GPS", "city": "Milford Charter Township", "intersection_directions": null, "plus4": null, "street_address": "124 E Commerce St", "zip": "48381", "cng_total_storage": null, "cng_vehicle_class": null, "ev_pricing": null, "SEMMCD": 2155, "NAME": "Milford", "COUNTY": 125 }, "geometry": { "type": "Point", "coordinates": [ -83.59953, 42.5915 ] } },
{ "type": "Feature", "properties": { "station_name": "54 - Northville", "updated_at": "2021-04-02T01:13:34", "facility_type": null, "geocode_status": "200-9", "city": "Northville", "intersection_directions": null, "plus4": null, "street_address": "20401 Haggerty Road", "zip": "48167", "cng_total_storage": null, "cng_vehicle_class": null, "ev_pricing": null, "SEMMCD": 1135, "NAME": "Northville Twp", "COUNTY": 163 }, "geometry": { "type": "Point", "coordinates": [ -83.435708, 42.435059 ] } },
{ "type": "Feature", "properties": { "station_name": "The Ypsilanti Performance Space", "updated_at": "2021-03-11T23:22:17", "facility_type": "OTHER_ENTERTAINMENT", "geocode_status": "GPS", "city": "Ypsilanti", "intersection_directions": null, "plus4": null, "street_address": "218 N Adams St", "zip": "48197", "cng_total_storage": null, "cng_vehicle_class": null, "ev_pricing": null, "SEMMCD": 4130, "NAME": "Ypsilanti", "COUNTY": 161 }, "geometry": { "type": "Point", "coordinates": [ -83.615633, 42.244439 ] } },
{ "type": "Feature", "properties": { "station_name": "City of Wixom Vehicle Charging Station", "updated_at": "2021-04-02T00:16:07", "facility_type": null, "geocode_status": "GPS", "city": "Wixom", "intersection_directions": null, "plus4": null, "street_address": "49320 Wainstock Street", "zip": "48393", "cng_total_storage": null, "cng_vehicle_class": null, "ev_pricing": "$1.00\/Hr Parking Fee", "SEMMCD": 2295, "NAME": "Wixom", "COUNTY": 125 }, "geometry": { "type": "Point", "coordinates": [ -83.536772, 42.523809 ] } },
{ "type": "Feature", "properties": { "station_name": "WALLED LAKE WIXOM EL", "updated_at": "2021-04-02T00:24:04", "facility_type": null, "geocode_status": "GPS", "city": "Wixom", "intersection_directions": null, "plus4": null, "street_address": "301 N Wixom Rd", "zip": "48393", "cng_total_storage": null, "cng_vehicle_class": null, "ev_pricing": null, "SEMMCD": 2295, "NAME": "Wixom", "COUNTY": 125 }, "geometry": { "type": "Point", "coordinates": [ -83.53642, 42.527707 ] } },
{ "type": "Feature", "properties": { "station_name": "AAA - Canton", "updated_at": "2021-04-01T22:55:13", "facility_type": null, "geocode_status": "GPS", "city": "Canton", "intersection_directions": null, "plus4": null, "street_address": "2017 North Canton Road", "zip": "48187", "cng_total_storage": null, "cng_vehicle_class": null, "ev_pricing": "Level 2: $0.42 per kWh", "SEMMCD": 1020, "NAME": "Canton Twp", "COUNTY": 163 }, "geometry": { "type": "Point", "coordinates": [ -83.488586, 42.320171 ] } },
{ "type": "Feature", "properties": { "station_name": "AAA - Brighton", "updated_at": "2021-04-01T22:55:13", "facility_type": null, "geocode_status": "GPS", "city": "Brighton", "intersection_directions": null, "plus4": null, "street_address": "8350 West Grand River", "zip": "48116", "cng_total_storage": null, "cng_vehicle_class": null, "ev_pricing": "Level 2: $0.42 per kWh", "SEMMCD": 7005, "NAME": "Brighton", "COUNTY": 93 }, "geometry": { "type": "Point", "coordinates": [ -83.790003, 42.545439 ] } },
{ "type": "Feature", "properties": { "station_name": "Brighton High School", "updated_at": "2021-03-15T13:14:11", "facility_type": "SCHOOL", "geocode_status": "GPS", "city": "Brighton", "intersection_directions": null, "plus4": null, "street_address": "7878 Brighton Rd", "zip": "48116", "cng_total_storage": null, "cng_vehicle_class": null, "ev_pricing": null, "SEMMCD": 7005, "NAME": "Brighton", "COUNTY": 93 }, "geometry": { "type": "Point", "coordinates": [ -83.793666, 42.526726 ] } },
{ "type": "Feature", "properties": { "station_name": "PS MART DUNDEE #1", "updated_at": "2021-04-02T00:24:04", "facility_type": null, "geocode_status": "GPS", "city": "Dundee", "intersection_directions": null, "plus4": null, "street_address": "655 Tecumseh St", "zip": "48131", "cng_total_storage": null, "cng_vehicle_class": null, "ev_pricing": null, "SEMMCD": 5025, "NAME": "Dundee", "COUNTY": 115 }, "geometry": { "type": "Point", "coordinates": [ -83.675699, 41.959331 ] } },
{ "type": "Feature", "properties": { "station_name": "PS MART DUNDEE #2", "updated_at": "2021-04-02T00:24:04", "facility_type": null, "geocode_status": "GPS", "city": "Dundee", "intersection_directions": null, "plus4": null, "street_address": "655 Tecumseh St", "zip": "48131", "cng_total_storage": null, "cng_vehicle_class": null, "ev_pricing": null, "SEMMCD": 5025, "NAME": "Dundee", "COUNTY": 115 }, "geometry": { "type": "Point", "coordinates": [ -83.67566, 41.959325 ] } },
{ "type": "Feature", "properties": { "station_name": "Best Western Dundee", "updated_at": "2021-03-15T13:14:11", "facility_type": "HOTEL", "geocode_status": "GPS", "city": "Dundee", "intersection_directions": null, "plus4": null, "street_address": "102 Whitetail Dr", "zip": "48131", "cng_total_storage": null, "cng_vehicle_class": null, "ev_pricing": null, "SEMMCD": 5025, "NAME": "Dundee", "COUNTY": 115 }, "geometry": { "type": "Point", "coordinates": [ -83.674764, 41.961207 ] } },
{ "type": "Feature", "properties": { "station_name": "WALLED LAKE COMMERCE", "updated_at": "2021-04-02T00:24:04", "facility_type": null, "geocode_status": "GPS", "city": "Commerce Charter Township", "intersection_directions": null, "plus4": null, "street_address": "520 Farr St", "zip": "48382", "cng_total_storage": null, "cng_vehicle_class": null, "ev_pricing": null, "SEMMCD": 2060, "NAME": "Commerce Twp", "COUNTY": 125 }, "geometry": { "type": "Point", "coordinates": [ -83.487527, 42.594258 ] } },
{ "type": "Feature", "properties": { "station_name": "WALLED LAKE GLENGARY", "updated_at": "2021-04-02T00:24:04", "facility_type": null, "geocode_status": "GPS", "city": "Commerce Charter Township", "intersection_directions": null, "plus4": null, "street_address": "3070 Woodbury", "zip": "48390", "cng_total_storage": null, "cng_vehicle_class": null, "ev_pricing": null, "SEMMCD": 2060, "NAME": "Commerce Twp", "COUNTY": 125 }, "geometry": { "type": "Point", "coordinates": [ -83.50115, 42.565621 ] } },
{ "type": "Feature", "properties": { "station_name": "WALLED LAKE WALLED LAKE EL", "updated_at": "2021-04-02T00:24:04", "facility_type": null, "geocode_status": "GPS", "city": "Walled Lake", "intersection_directions": null, "plus4": null, "street_address": "1055 W West Maple Rd", "zip": "48390", "cng_total_storage": null, "cng_vehicle_class": null, "ev_pricing": null, "SEMMCD": 2275, "NAME": "Walled Lake", "COUNTY": 125 }, "geometry": { "type": "Point", "coordinates": [ -83.49287, 42.532159 ] } },
{ "type": "Feature", "properties": { "station_name": "KOHLS 647 CHESTERFLD1", "updated_at": "2021-04-02T00:24:04", "facility_type": null, "geocode_status": "GPS", "city": "New Baltimore", "intersection_directions": null, "plus4": null, "street_address": "50500 Gratiot Ave", "zip": "48051", "cng_total_storage": null, "cng_vehicle_class": null, "ev_pricing": null, "SEMMCD": 3025, "NAME": "Chesterfield Twp", "COUNTY": 99 }, "geometry": { "type": "Point", "coordinates": [ -82.834792, 42.670165 ] } },
{ "type": "Feature", "properties": { "station_name": "TOWNS MARATHON DC STATION #1", "updated_at": "2021-04-02T00:24:04", "facility_type": null, "geocode_status": "GPS", "city": "Romeo", "intersection_directions": null, "plus4": null, "street_address": "13200 32 Mile Rd", "zip": "48065", "cng_total_storage": null, "cng_vehicle_class": null, "ev_pricing": null, "SEMMCD": 3100, "NAME": "Romeo", "COUNTY": 99 }, "geometry": { "type": "Point", "coordinates": [ -83.004337, 42.802473 ] } },
{ "type": "Feature", "properties": { "station_name": "TOWNS MARATHON DC STATION #2", "updated_at": "2021-04-02T00:24:04", "facility_type": null, "geocode_status": "GPS", "city": "Romeo", "intersection_directions": null, "plus4": null, "street_address": "13200 32 Mile Rd", "zip": "48065", "cng_total_storage": null, "cng_vehicle_class": null, "ev_pricing": null, "SEMMCD": 3100, "NAME": "Romeo", "COUNTY": 99 }, "geometry": { "type": "Point", "coordinates": [ -83.004357, 42.802503 ] } },
{ "type": "Feature", "properties": { "station_name": "FCI Milan", "updated_at": "2021-03-04T18:40:37", "facility_type": "FED_GOV", "geocode_status": "GPS", "city": "Milan", "intersection_directions": null, "plus4": null, "street_address": "4004 Arkona Rd", "zip": "48160", "cng_total_storage": null, "cng_vehicle_class": null, "ev_pricing": null, "SEMMCD": 4125, "NAME": "York Twp", "COUNTY": 161 }, "geometry": { "type": "Point", "coordinates": [ -83.668752, 42.094497 ] } },
{ "type": "Feature", "properties": { "station_name": "CAE Inc", "updated_at": "2021-03-15T13:14:11", "facility_type": "OTHER", "geocode_status": "GPS", "city": "Township of Hamburg", "intersection_directions": null, "plus4": null, "street_address": "10087 Industrial Dr", "zip": "48189", "cng_total_storage": null, "cng_vehicle_class": null, "ev_pricing": null, "SEMMCD": 7045, "NAME": "Hamburg Twp", "COUNTY": 93 }, "geometry": { "type": "Point", "coordinates": [ -83.791451, 42.454892 ] } },
{ "type": "Feature", "properties": { "station_name": "Freedom Plaza", "updated_at": "2021-03-15T13:14:11", "facility_type": "OFFICE_BLDG", "geocode_status": "GPS", "city": "Farmington", "intersection_directions": null, "plus4": null, "street_address": "37085 Grand River Ave", "zip": "48335", "cng_total_storage": null, "cng_vehicle_class": null, "ev_pricing": null, "SEMMCD": 2065, "NAME": "Farmington", "COUNTY": 125 }, "geometry": { "type": "Point", "coordinates": [ -83.414567, 42.46787 ] } },
{ "type": "Feature", "properties": { "station_name": "Family Medical Center", "updated_at": "2021-03-15T13:14:11", "facility_type": "HOSPITAL", "geocode_status": "GPS", "city": "Carleton", "intersection_directions": null, "plus4": null, "street_address": "130 Medical Center Dr", "zip": "48117", "cng_total_storage": null, "cng_vehicle_class": null, "ev_pricing": null, "SEMMCD": 5005, "NAME": "Ash Twp", "COUNTY": 115 }, "geometry": { "type": "Point", "coordinates": [ -83.378745, 42.056509 ] } }
]
}
